Store Name,Address,City,State/Province,Zip/Postal Code,Phone Number,Latitude,Longitude
Tim Hortons - 185 East Lake Cres (DT),185 East Lake Cres,Airdrie,AB,"T4A 2H7,(403) 912-1230",(403) 912-1230,51.28576,-113.99683
Tim Hortons - 2649 Main St S (DT),2649 Main St S,Airdrie,AB,"T4B 2V7,(403) 948-0119",(403) 948-0119,51.26923,-114.00842
Tim Hortons - 5900-50th St (DT),5900-50th St,Beaumont,AB,"T4X 1T8,(780) 929-9451",(780) 929-9451,53.36042,-113.41523
Tim Hortons - 10500 20th Ave,10500 20th Ave,Blairmore,AB,"T0K 0E0,(403) 562-7770",(403) 562-7770,49.61977,-114.46384
Tim Hortons - 1315 Second Ave W (DT),1315 Second Ave W,Brooks,AB,"T1R 0V5,(403) 362-2077",(403) 362-2077,50.56688,-111.90533
Tim Hortons - 100 - 723 46 Ave SE (DT),100 - 723 46 Ave SE,Calgary,AB,"T2G 2A4,(403) 243-7028",(403) 243-7028,51.01109,-114.04855
Tim Hortons - 10233 Elbow Dr SW (DT),10233 Elbow Dr SW,Calgary,AB,"T2W 1E8,(403) 255-8700",(403) 255-8700,50.96259,-114.08474
Tim Hortons - 10440 MacLeod Trail SE,10440 MacLeod Trail SE,Calgary,AB,"T2J 0P8,(403) 271-6476",(403) 271-6476,50.95796,-114.07151
Tim Hortons - 1103 17th Ave. SW,1103 17th Ave. SW,Calgary,AB,"T2T 0B5,(403) 228-9899",(403) 228-9899,51.03783,-114.08721
Tim Hortons - 1133 137 Ave SE (DT),1133 137 Ave SE,Calgary,AB,"T2J 6Y5,(403) 225-0072",(403) 225-0072,50.92721,-114.03003
Tim Hortons - 11472 Braeside Drive S.W (DT),11472 Braeside Drive S.W,Calgary,AB,"T2W 2X8,(403) 259-4881",(403) 259-4881,50.95413,-114.11595
Tim Hortons - 1185 49 Ave NE (DT),1185 49 Ave NE,Calgary,AB,"T2E 8V2,(403) 730-0556",(403) 730-0556,51.09731,-114.03444
Tim Hortons - 1201 1 St SE,1201 1 St SE,Calgary,AB,"T2G 2H7,(403) 262-5556",(403) 262-5556,51.04134,-114.06087
Tim Hortons - 1211 12 Ave SW,1211 12 Ave SW,Calgary,AB,"T3C 3S7,(403) 245-0990",(403) 245-0990,51.04215,-114.08915
Tim Hortons - 1341 32  Ave NE (DT),1341 32  Ave NE,Calgary,AB,"T2E 7Z5,(403) 291-2966",(403) 291-2966,51.08138,-114.02719
Tim Hortons - 13615 Bonaventure Dr SE,13615 Bonaventure Dr SE,Calgary,AB,"T2J 6W5,(403) 278-2770",(403) 278-2770,50.93159,-114.06309
Tim Hortons - 15150 Mt McKenzie Dr SE (DT),15150 Mt McKenzie Dr SE,Calgary,AB,"T2Z 2L4,(403) 257-0927",(403) 257-0927,50.9165,-113.98129
Tim Hortons - 1820B Uxbridge Dr NW,1820B Uxbridge Dr NW,Calgary,AB,"T2N 3Z1,(403) 284-0349",(403) 284-0349,51.06904,-114.12919
Tim Hortons - 2021 Pegasus Rd NE (DT),2021 Pegasus Rd NE,Calgary,AB,"T2E 8C3,(403) 250-3395",(403) 250-3395,51.09414,-114.01027
Tim Hortons - 205 5th Ave S.W.,205 5th Ave S.W.,Calgary,AB,"T2P 2Y7,(403) 264-1877",(403) 264-1877,51.04507,-114.06319
Tim Hortons - 220 68 St NE,220 68 St NE,Calgary,AB,"T2A 6P7,(403) 272-4868",(403) 272-4868,51.05249,-113.93508
Tim Hortons - 225 7th Ave SW,225 7th Ave SW,Calgary,AB,"T2P 2W3,(403) 262-9330",(403) 262-9330,51.04654,-114.066
Tim Hortons - 2520 52 St  N.E. (DT),2520 52 St  N.E.,Calgary,AB,"T1Y 3R5,(403) 293-9373",(403) 293-9373,51.07417,-113.95818
Tim Hortons - 2616 39th Ave. NE (DT),2616 39th Ave. NE,Calgary,AB,"T1Y 7J9,(403) 250-8807",(403) 250-8807,51.08867,-114.00101
Tim Hortons - 2681 Sunridge Way NE (DT),2681 Sunridge Way NE,Calgary,AB,"T1Y 7K7,(403) 503-0673",(403) 503-0673,51.06873,-113.9861
Tim Hortons - 347 Southland Dr (DT),347 Southland Dr,Calgary,AB,"T2J 3L4,(403) 225-3365",(403) 225-3365,50.96401,-114.06038
Tim Hortons - 35 Edenwold Drive NW,35 Edenwold Drive NW,Calgary,AB,"T3A 3S8,(403) 547-4087",(403) 547-4087,51.12644,-114.13854
Tim Hortons - 3508 37th St. SW,3508 37th St. SW,Calgary,AB,"T2G 3C4,(403) 242-9728",(403) 242-9728,51.02143,-114.14106
Tim Hortons - 3619-61st Ave SE (DT),3619-61st Ave SE,Calgary,AB,"T2C 1R2,(403) 236-2123",(403) 236-2123,50.999,-113.98213
Tim Hortons - 3660 Westwinds Dr. NE (DT),3660 Westwinds Dr. NE,Calgary,AB,"T3J 5H3,(403) 280-7731",(403) 280-7731,51.10013,-113.96588
Tim Hortons - 3840 MacLeod Trail SE (DT),3840 MacLeod Trail SE,Calgary,AB,"T2G 2R2,(403) 287-7780",(403) 287-7780,51.02015,-114.06148
Tim Hortons - 3912 17 Ave SE,3912 17 Ave SE,Calgary,AB,"T2A 0S6,(403) 273-8380",(403) 273-8380,51.03784,-113.97849
Tim Hortons - 3955 17 Ave SW,3955 17 Ave SW,Calgary,AB,"T3E 0C3,(403) 249-8839",(403) 249-8839,51.03779,-114.14342
Tim Hortons - 400 - 303 Shawville Blvd SE (DT),400 - 303 Shawville Blvd SE,Calgary,AB,"T2Y 3W6,(403) 201-1555",(403) 201-1555,50.89924,-114.0656
Tim Hortons - 400-11488 24th St SE (DT),400-11488 24th St SE,Calgary,AB,"T2Z 4C9,(403) 236-3749",(403) 236-3749,50.9536,-114.00104
Tim Hortons - 4015 Centre St NW (DT),4015 Centre St NW,Calgary,AB,"T2E 3A7,(403) 230-8999",(403) 230-8999,51.08806,-114.06246
Tim Hortons - 44 Sandarac Dr NW,44 Sandarac Dr NW,Calgary,AB,"T3K 3V2,(403) 275-8280",(403) 275-8280,51.13239,-114.09955
Tim Hortons - 444 58 Ave SE,444 58 Ave SE,Calgary,AB,"T2H 0P4,(403) 253-5367",(403) 253-5367,51.00134,-114.05568
Tim Hortons - 45 Everidge Drive SW (DT),45 Everidge Drive SW,Calgary,AB,"T2Y 4R5,(403) 873-0133",(403) 873-0133,50.90976,-114.12117
Tim Hortons - 4953 Barlow Trail SE (DT),4953 Barlow Trail SE,Calgary,AB,"T2B 3B5,(403) 235-3460",(403) 235-3460,51.00991,-114.00194
Tim Hortons - 5 Heritage Gate SE (DT),5 Heritage Gate SE,Calgary,AB,"T2H 3A7,(403) 692-6629",(403) 692-6629,50.98727,-114.04422
"Tim Hortons - 500, 3508 - 32 Avenue NE (DT)",500  3508 - 32 Avenue NE,Calgary,AB,"T1Y 6J2,(403) 291-2925",(403) 291-2925,51.08155,-113.98534
Tim Hortons - 500 Country Hills Blvd NE (DT),500 Country Hills Blvd NE,Calgary,AB,"T3K 4Y7,(403) 226-9331",(403) 226-9331,51.15458,-114.05397
Tim Hortons - 5010 4 St NE,5010 4 St NE,Calgary,AB,"T2K 5X8,(403) 274-1199",(403) 274-1199,51.11269,-114.05647
Tim Hortons - 5111 Northland Dr,5111 Northland Dr,Calgary,AB,"T2L 2J8,(403) 247-5002",(403) 247-5002,51.09852,-114.14144
Tim Hortons - 5279 72 Ave SE (DT),5279 72 Ave SE,Calgary,AB,"T2C 3H3,(403) 236-1110",(403) 236-1110,50.98947,-113.95896
Tim Hortons - 575 36 St NE,575 36 St NE,Calgary,AB,"T2A 6K3,(403) 248-7904",(403) 248-7904,51.05674,-113.98203
Tim Hortons - 5927 Signal Hill Ctr SW (DT),5927 Signal Hill Ctr SW,Calgary,AB,"T3H 3P8,(403) 246-7793",(403) 246-7793,51.01798,-114.17491
Tim Hortons - 6 Richard Way SW,6 Richard Way SW,Calgary,AB,"T3E 7M9,(403) 242-1435",(403) 242-1435,51.00586,-114.13135
Tim Hortons - 614 6th Ave SW,614 6th Ave SW,Calgary,AB,"T2P 0S4,(403) 262-8008",(403) 262-8008,51.04773,-114.07403
Tim Hortons - 614 Crowchild Trail NW,614 Crowchild Trail NW,Calgary,AB,"T2N 2R8,(403) 283-5461",(403) 283-5461,51.05728,-114.11783
Tim Hortons - 620 Country Hills Blvd NE (DT),620 Country Hills Blvd NE,Calgary,AB,"T3J 3T9,(403) 226-2300",(403) 226-2300,51.15468,-114.06044
Tim Hortons - 6460 Centre Street NE (DT),6460 Centre Street NE,Calgary,AB,"T2K 5C5,(403) 275-4688",(403) 275-4688,51.10884,-114.06243
Tim Hortons - 6510 Country Hills Blvd NW (DT),6510 Country Hills Blvd NW,Calgary,AB,"T3G 4R8,(403) 239-5113",(403) 239-5113,51.14141,-114.18225
Tim Hortons - 6815 Macleod Trail SW,6815 Macleod Trail SW,Calgary,AB,"T2H 0L5,(403) 259-4203",(403) 259-4203,50.99261,-114.07235
Tim Hortons - 6825 MacLeod Trail SW (DT),6825 MacLeod Trail SW,Calgary,AB,"T2H 0L3,(403) 255-4886",(403) 255-4886,50.99239,-114.07284
Tim Hortons - 79 Crowfoot Way NW (DT),79 Crowfoot Way NW,Calgary,AB,"T3G 2R2,(403) 239-2583",(403) 239-2583,51.1243,-114.20356
Tim Hortons - 7908 Bowness Rd NW,7908 Bowness Rd NW,Calgary,AB,"T3B 0H2,(403) 288-4569",(403) 288-4569,51.08894,-114.19977
Tim Hortons - 8338 18 St SE,8338 18 St SE,Calgary,AB,"T2C 4E4,(403) 236-0291",(403) 236-0291,50.97562,-114.01573
Tim Hortons - 905-64th Ave. NW,905-64th Ave. NW,Calgary,AB,"T2K 0M5,(403) 274-0577",(403) 274-0577,51.11132,-114.07698
Tim Hortons - 917 85th St. S.W.,917 85th St. S.W.,Calgary,AB,"T3H 4C7,(403) 217-2900",(403) 217-2900,51.0618,-114.21079
Tim Hortons - 924 16 Ave NW,924 16 Ave NW,Calgary,AB,"T2M 0K3,(403) 289-8353",(403) 289-8353,51.06692,-114.09347
Tim Hortons - 9650 Harvest Hills Blvd. NE (DT),9650 Harvest Hills Blvd. NE,Calgary,AB,"T3K 0B3,(403) 532-4686",(403) 532-4686,51.14168,-114.06843
Tim Hortons - 9835 Macleod Trail SW,9835 Macleod Trail SW,Calgary,AB,"T2J 0P6,(403) 255-4251",(403) 255-4251,50.96594,-114.07171
Tim Hortons - 99 Shawville Blvd SE (DT),99 Shawville Blvd SE,Calgary,AB,"T2Y 3W5,(403) 201-7488",(403) 201-7488,50.90418,-114.06634
Tim Hortons - Airport Terminal Bldg,"Airport Terminal Bldg,2000 Airport Rd NE",Calgary,AB,"T2E 6W5,(403) 221-1786",(403) 221-1786,51.13423,-114.00551
Tim Hortons - BP Building,"BP Building,240 4th Ave SW",Calgary,AB,"T2P 4H4,(403) 263-2342",(403) 263-2342,51.04936,-114.0661
Tim Hortons - Calgary Airport,"Calgary Airport,2000 Airport Rd NE",Calgary,AB,"T2E 6W5,(403) 221-1786",(403) 221-1786,51.13423,-114.00551
Tim Hortons - Doan Bldg,"Doan Bldg,101 - 444 5th Ave SW",Calgary,AB,"T2P 2T8,(403) 398-5444",(403) 398-5444,51.04858,-114.07072
Tim Hortons - Gulf Canada Square,"Gulf Canada Square,401 9 Ave SW",Calgary,AB,"T2P 3C5,(403) 265-9045",(403) 265-9045,51.0448,-114.07044
Tim Hortons - Lake Bonavista Sq Shopping Ctr (DT),"Lake Bonavista Sq Shopping Ctr,12100 MacLeod Trail SE",Calgary,AB,"T2J 7G9,(403) 278-7322",(403) 278-7322,50.94373,-114.07018
Tim Hortons - MacEwan Hall Student Centre,"MacEwan Hall Student Centre,402 Collegiate Blvd NW",Calgary,AB,,(403) 220-5549,51.07888,-114.13382
Tim Hortons - Midlake Plaza (DT),"Midlake Plaza,15425 Bannister Rd SE",Calgary,AB,"T2X 1Z3,(403) 256-3451",(403) 256-3451,50.91461,-114.06552
Tim Hortons - Mount Royal College,"Mount Royal College,4825 Richard Rd SW",Calgary,AB,"T3E 6K6,(403) 440-6330",(403) 440-6330,51.01102,-114.127
Tim Hortons - Mr. Lube (DT),"Mr. Lube,3807 Bow Trail SW",Calgary,AB,"T3C 2E8,(403) 246-0228",(403) 246-0228,51.04529,-114.14174
Tim Hortons - Paramount Chinook,"Paramount Chinook,6455 Macleod Trail",Calgary,AB,"T2H 0K4,(403) 212-8098",(403) 212-8098,50.99607,-114.0717
Tim Hortons - Revy Home & Garden,"Revy Home & Garden,90 Crowfoot Way NW",Calgary,AB,"T3G 4C8,(403) 239-9400",(403) 239-9400,51.12428,-114.20336
Tim Hortons - RONA Home & Garden Centre,"RONA Home & Garden Centre,2665-32nd Street NE",Calgary,AB,"T1Y 6Z7,(403) 219-5800",(403) 219-5800,51.07716,-113.98864
Tim Hortons - South Trail Crossing (DT),"South Trail Crossing,4307 130 Ave SE",Calgary,AB,"T2Z 3V8,(403) 257-8031",(403) 257-8031,50.93192,-113.9704
Tim Hortons - Telus Building,"Telus Building,411 1 St E",Calgary,AB,"T2G 4Y5,(403) 262-8449",(403) 262-8449,51.04911,-114.06023
Tim Hortons - Trans Canada Mall,"Trans Canada Mall,550 - 1440 52 St NE",Calgary,AB,"T2A 4T8,(403) 248-8506",(403) 248-8506,51.06293,-113.9583
Tim Hortons - University of Calgary Murray Fraser Law Bldg,"University of Calgary Murray Fraser Law Bldg,2800 University Way NW",Calgary,AB,"T2N 1N4,(403) 220-5431",(403) 220-5431,51.07601,-114.12933
Tim Hortons - University of Calgary Science B Building,"University of Calgary Science B Building,834 Campus Way NW",Calgary,AB,"T2N 1N4,(403) 220-5431",(403) 220-5431,51.06717,-114.14202
Tim Hortons - 3601 48th Ave (DT),3601 48th Ave,Camrose,AB,"T4V 1L8,(780) 672-5087",(780) 672-5087,53.01218,-112.78884
Tim Hortons - 6602 48 Ave (DT),6602 48 Ave,Camrose,AB,"T4V 4R1,(780) 608-7626",(780) 608-7626,53.01801,-112.8556
Tim Hortons - 1729 Mountain Ave,1729 Mountain Ave,Canmore,AB,"T1W 2W1,(403) 678-9900",(403) 678-9900,51.1027,-115.36141
Tim Hortons - 1729 Mountain Ave (DT),1729 Mountain Ave,Canmore,AB,"T1W 2W1,(403) 678-8701",(403) 678-8701,51.1027,-115.36141
Tim Hortons - 120 Chestermere Station Way (DT),120 Chestermere Station Way,Chestermere,AB,"T1X 1V3,(403) 248-0000",(403) 248-0000,51.05086,-113.82393
Tim Hortons - 2516 21st Avenue (DT),2516 21st Avenue,Coaldale,AB,"T1M 0C1,403-345-2218",403-345-2218,49.72576,-112.61958
Tim Hortons - 12 Westside Dr (DT),12 Westside Dr,Cochrane,AB,"T4C 1M1,(403) 851-1515",(403) 851-1515,51.18938,-114.48875
Tim Hortons - 4301 50 St (DT),4301 50 St,Cold Lake,AB,"T9M 1K6,(780) 594-1330",(780) 594-1330,54.40708,-110.20519
Tim Hortons - 6803 51st Street (DT),6803 51st Street,Cold Lake,AB,"T9M 1Z9,(780) 594-1094",(780) 594-1094,54.43214,-110.2073
Tim Hortons - 283180 Range Rd (DT),283180 Range Rd,Crossfield,AB,"T0M 0S0,(403) 946-0490",(403) 946-0490,51.4093,-114.02519
Tim Hortons - 10070 163 St NW,10070 163 St NW,Edmonton,AB,"T5P 3N4,(780) 489-1664",(780) 489-1664,53.54079,-113.60268
Tim Hortons - 10110 Kingsway NW,10110 Kingsway NW,Edmonton,AB,"T5H 3V8,(780) 426-7974",(780) 426-7974,53.55451,-113.49372
Tim Hortons - 10150 Jasper Ave,10150 Jasper Ave,Edmonton,AB,"T5J 1W5,(780) 426-3800",(780) 426-3800,53.54097,-113.49489
Tim Hortons - 10200 102 Ave,10200 102 Ave,Edmonton,AB,"T5J 4V7,(780) 420-0232",(780) 420-0232,53.54307,-113.49555
Tim Hortons - 10221 170 St NW,10221 170 St NW,Edmonton,AB,"T5P 4V4,(780) 484-0731",(780) 484-0731,53.54353,-113.61543
Tim Hortons - 10310 31 Ave NW (DT),10310 31 Ave NW,Edmonton,AB,"T6J 6Y5,(780) 462-5874",(780) 462-5874,53.46239,-113.50865
Tim Hortons - 10365 111 St NW (DT),10365 111 St NW,Edmonton,AB,"T5K 2V3,(780) 423-1111",(780) 423-1111,53.54565,-113.5121
Tim Hortons - 10519 82 Ave NW,10519 82 Ave NW,Edmonton,AB,"T6E 2A3,(780) 439-3205",(780) 439-3205,53.51811,-113.49128
Tim Hortons - 10665 Jasper Ave (DT),10665 Jasper Ave,Edmonton,AB,"T5J 3S9,(780) 420-6669",(780) 420-6669,53.54094,-113.50412
Tim Hortons - 10863 82 Ave NW,10863 82 Ave NW,Edmonton,AB,"T6E 2B2,(780) 433-3231",(780) 433-3231,53.51806,-113.51204
Tim Hortons - 11084 51 Ave NW (DT),11084 51 Ave NW,Edmonton,AB,"T6H 0L4,(780) 413-3477",(780) 413-3477,53.48828,-113.51401
Tim Hortons - 11241 Groat Road North West (DT),11241 Groat Road North West,Edmonton,AB,"T5M 4E7,(780) 455-1982",(780) 455-1982,53.56048,-113.55121
Tim Hortons - 11312 109 St NW,11312 109 St NW,Edmonton,AB,"T5G 2T7,(780) 474-2368",(780) 474-2368,53.56278,-113.50852
Tim Hortons - 11940-111 Ave. (DT),11940-111 Ave.,Edmonton,AB,"T5G 0E5,(780) 455-6686",(780) 455-6686,53.55893,-113.52825
Tim Hortons - 1203 Parsons Rd,1203 Parsons Rd,Edmonton,AB,"T6N 0A9,(780) 490-7385",(780) 490-7385,53.45667,-113.47977
Tim Hortons - 12820 82nd Street N.W (DT),12820 82nd Street N.W,Edmonton,AB,"T5E 2T2,(780) 456-3701",(780) 456-3701,53.58817,-113.46761
Tim Hortons - 12996 50 St NW (DT),12996 50 St NW,Edmonton,AB,"T5A 4L2,(780) 457-0221",(780) 457-0221,53.58947,-113.41821
Tim Hortons - 13015 118 Ave NW,13015 118 Ave NW,Edmonton,AB,"T5L 2L3,(780) 455-4165",(780) 455-4165,53.57035,-113.54809
Tim Hortons - 13410 97 St NW (DT),13410 97 St NW,Edmonton,AB,"T5E 4E1,(780) 413-0880",(780) 413-0880,53.59484,-113.49192
Tim Hortons - 13604 137 Avenue NW (DT),13604 137 Avenue NW,Edmonton,AB,"T5L 2B3,(780) 472-8018",(780) 472-8018,53.59954,-113.55538
Tim Hortons - 13704 50th St NW (DT),13704 50th St NW,Edmonton,AB,"T5A 4Y3,NA",NA,53.5965,-113.41359
Tim Hortons - 13831 127 St NW,13831 127 St NW,Edmonton,AB,"T6V 1A8,(780) 456-6041",(780) 456-6041,53.59997,-113.5411
Tim Hortons - 15606 111 Ave NW (DT),15606 111 Ave NW,Edmonton,AB,"T5M 2R7,(780) 447-5586",(780) 447-5586,53.55899,-113.59172
Tim Hortons - 15710 Stony Plain Road NW (DT),15710 Stony Plain Road NW,Edmonton,AB,"T5P 3Z5,(780) 484-8737",(780) 484-8737,53.54128,-113.59211
Tim Hortons - 16039 97 St NW (DT),16039 97 St NW,Edmonton,AB,"T5X 6E4,(780) 408-1710",(780) 408-1710,53.62364,-113.49199
Tim Hortons - 16438 87 Ave NW (DT),16438 87 Ave NW,Edmonton,AB,"T5R 4H2,(780) 443-7785",(780) 443-7785,53.51954,-113.60782
Tim Hortons - 17004 111th Ave (DT),17004 111th Ave,Edmonton,AB,"T5S 2Y1,(780) 482-1777",(780) 482-1777,53.55843,-113.64797
Tim Hortons - 17761 100 Ave NW (DT),17761 100 Ave NW,Edmonton,AB,"T5S 1R6,(780) 443-3778",(780) 443-3778,53.53797,-113.62584
Tim Hortons - 18314 Lessard Rd (DT),18314 Lessard Rd,Edmonton,AB,"T6M 2X5,(780) 444-9339",(780) 444-9339,53.48592,-113.6408
Tim Hortons - 18403 111th Ave (DT),18403 111th Ave,Edmonton,AB,"T5S 2V5,(780) 453-3305",(780) 453-3305,53.55961,-113.63969
Tim Hortons - 18521 Stony Plain Rd.,18521 Stony Plain Rd.,Edmonton,AB,"T5S 2V9,780-484-9913",780-484-9913,53.54126,-113.65141
Tim Hortons - 18531 Stony Plain Rd (DT),18531 Stony Plain Rd,Edmonton,AB,"T5S 2X6,(780) 483-9406",(780) 483-9406,53.54126,-113.65141
Tim Hortons - 2133 99 St NW (DT),2133 99 St NW,Edmonton,AB,"T6N 1L4,(780) 440-3666",(780) 440-3666,53.45144,-113.48597
Tim Hortons - 2309 Rabbit Hill Road NW (DT),2309 Rabbit Hill Road NW,Edmonton,AB,"T6R 3L6,(780) 432-4451",(780) 432-4451,53.45425,-113.56556
Tim Hortons - 2943 137 Ave NW (DT),2943 137 Ave NW,Edmonton,AB,"T5A 5G8,(780) 472-1627",(780) 472-1627,53.59955,-113.38829
Tim Hortons - 3341 34th Street (DT),3341 34th Street,Edmonton,AB,"T6T 0B5,(780) 450-0066",(780) 450-0066,53.45957,-113.39382
Tim Hortons - 3518 118 Ave (DT),3518 118 Ave,Edmonton,AB,"T5W 0Z4,(780) 477-1115",(780) 477-1115,53.57041,-113.39588
Tim Hortons - 3615 Calgary Trail NW,3615 Calgary Trail NW,Edmonton,AB,"T6J 5M8,(780) 436-9187",(780) 436-9187,53.47121,-113.49564
Tim Hortons - 420 Manning Crossing NW (DT),420 Manning Crossing NW,Edmonton,AB,"T5A 5A1,(780) 406-5955",(780) 406-5955,53.60011,-113.42388
Tim Hortons - 4310 - 66 St NW (DT),4310 - 66 St NW,Edmonton,AB,"T6K 4A2,(780) 485-9660",(780) 485-9660,53.48138,-113.44285
Tim Hortons - 4403 50th Street (DT),4403 50th Street,Edmonton,AB,"T6L 7A3,(780) 440-2479",(780) 440-2479,53.48221,-113.41801
Tim Hortons - 5010 99 St NW,5010 99 St NW,Edmonton,AB,"T6E 3N6,(403) 434-4951",(403) 434-4951,53.48721,-113.48617
Tim Hortons - 5204 23rd Ave NW (DT),5204 23rd Ave NW,Edmonton,AB,"T6L 6X4,(780) 469-9925",(780) 469-9925,53.45445,-113.42307
Tim Hortons - 6566 28 Ave NW,6566 28 Ave NW,Edmonton,AB,"T6L 6N3,(780) 461-4250",(780) 461-4250,53.45836,-113.43311
Tim Hortons - 7457 Roper Road N.W. (DT),7457 Roper Road N.W.,Edmonton,AB,"T6B 3K9,(780) 428-4470",(780) 428-4470,53.49281,-113.44205
Tim Hortons - 7502 Gateway Blvd NW (DT),7502 Gateway Blvd NW,Edmonton,AB,"T6E 6E8,(780) 434-7700",(780) 434-7700,53.51115,-113.49443
Tim Hortons - 8427 112 St NW,8427 112 St NW,Edmonton,AB,"T6G 1K5,(780) 413-7528",(780) 413-7528,53.52031,-113.52085
Tim Hortons - 8555 Argyll Rd NW (DT),8555 Argyll Rd NW,Edmonton,AB,"T6C 4B2,(780) 413-6384",(780) 413-6384,53.5004,-113.45833
Tim Hortons - 862 Parsons Road SW (DT),862 Parsons Road SW,Edmonton,AB,"T6X 0B4,(780) 485-0451",(780) 485-0451,53.42572,-113.47995
Tim Hortons - 906 111 St NW,906 111 St NW,Edmonton,AB,"T6J 6T6,(780) 439-5650",(780) 439-5650,53.48195,-113.51726
Tim Hortons - 9515 149 St NW,9515 149 St NW,Edmonton,AB,"T5P 1J7,(780) 452-4544",(780) 452-4544,53.53176,-113.578
Tim Hortons - 9628 153 Ave NW,9628 153 Ave NW,Edmonton,AB,"T5X 4H2,(780) 472-2480",(780) 472-2480,53.61412,-113.51484
Tim Hortons - 9655 63 Ave NW (DT),9655 63 Ave NW,Edmonton,AB,"T6E 0G2,(780) 433-7792",(780) 433-7792,53.49984,-113.47941
Tim Hortons - 9710 132 Ave NW (DT),9710 132 Ave NW,Edmonton,AB,"T5E 6J4,(780) 413-0880",(780) 413-0880,53.59211,-113.49197
Tim Hortons - 9850 34 Ave NW (DT),9850 34 Ave NW,Edmonton,AB,"T6E 6L1,(780) 433-2752",(780) 433-2752,53.4674,-113.48015
Tim Hortons - Beaumaris Shopping Centre (DT),"Beaumaris Shopping Centre,9902 153 Ave NW",Edmonton,AB,"T5X 6A4,(780) 448-9722",(780) 448-9722,53.61414,-113.4957
Tim Hortons - Capilano Mall (DT),"Capilano Mall,5003 101 Ave NW",Edmonton,AB,"T6A 0G7,(780) 468-2990",(780) 468-2990,53.54258,-113.41875
Tim Hortons - Central Academic Bldg.,"Central Academic Bldg.,125 University Ave",Edmonton,AB,"T6G 3V9,(780) 492-4874",(780) 492-4874,53.51657,-113.52651
Tim Hortons - CFB Edmonton (DT),CFB Edmonton,Edmonton,AB,"T5J 4J5,(780) 973-6944",(780) 973-6944,53.66819,-113.49057
Tim Hortons - Edmonton International Airport,"Edmonton International Airport,P.O. Box 9860",Edmonton,AB,"T5J 2T2,(780) 890-4003",(780) 890-4003,53.54337,-113.49563
"Tim Hortons - Grant MacEwan College, South Campus","Grant MacEwan College  South Campus,7319 29th Ave",Edmonton,AB,"T6K 2P1,(780) 497-4141",(780) 497-4141,53.46007,-113.44228
Tim Hortons - Grant MacEwan College,"Grant MacEwan College,10700 104 Ave NW",Edmonton,AB,"T5J 4S2,(780) 497-5047",(780) 497-5047,53.54624,-113.50473
Tim Hortons - Grant McEwan College,"Grant McEwan College,10700 104 Ave",Edmonton,AB,"T5H 0K3,(780) 497-5047",(780) 497-5047,53.54873,-113.48072
Tim Hortons - Lister Hall Rm 103,"Lister Hall Rm 103,125 University Campus NW",Edmonton,AB,"T6G 2H6,(780) 217-0495",(780) 217-0495,53.51416,-113.5126
Tim Hortons - Lister Hall,"Lister Hall,125 University Campus NW",Edmonton,AB,"T6G 2H6,(780) 492-7118",(780) 492-7118,53.51416,-113.5126
Tim Hortons - Market Square Esso,"Market Square Esso,2308 50 St NW",Edmonton,AB,"T6L 6Z4,(780) 465-9199",(780) 465-9199,53.46201,-113.4207
Tim Hortons - Northern Alberta Institute of Technology - ICT Building,"Northern Alberta Institute of Technology - ICT Building,11762 106 St NW",Edmonton,AB,"T5G 2R1,(780) 721-7673",(780) 721-7673,53.5683,-113.50301
Tim Hortons - Rexall Centre of Pharmacy & Health Research,"Rexall Centre of Pharmacy & Health Research,University of Alberta",Edmonton,AB,T6G 2E1,,53.51648,-113.52586
Tim Hortons - Royal Alexandra Hospital,"Royal Alexandra Hospital,10240 Kingsway NW",Edmonton,AB,"T5H 3V9,(780) 477-4597",(780) 477-4597,53.55554,-113.49585
"Tim Hortons - University of Alberta, Lister Hall","University of Alberta  Lister Hall,87th Ave",Edmonton,AB,"T6G 2H6,(780) 492-6373",(780) 492-6373,53.52283,-113.5343
Tim Hortons - West Edmonton Mall,"West Edmonton Mall,87710 170 St",Edmonton,AB,"T5T 4J2,(780) 489-3308",(780) 489-3308,53.5149,-113.61549
Tim Hortons -  (DT),,Edmonton,AB,T6N 1N3,(780) 461-4544,53.44634,-113.49056
Tim Hortons - 4209 3rd Ave (DT),4209 3rd Ave,Edson,AB,"T7E 1B8,(780) 723-7244",(780) 723-7244,53.58774,-116.41409
Tim Hortons - 105 Thickwood Blvd (DT),105 Thickwood Blvd,Fort McMurray,AB,"T9H 5E5,(780) 743-4433",(780) 743-4433,56.73225,-111.43211
Tim Hortons - 9701 Hardin St (DT),9701 Hardin St,Fort McMurray,AB,"T9H 1L2,(780) 743-1240",(780) 743-1240,56.72432,-111.38201
Tim Hortons - CNRL Horizon Oil Sands Project,"CNRL Horizon Oil Sands Project,Hwy. 63 North",Fort McMurray,AB,,(780) 598-3136,56.6721,-111.35055
Tim Hortons - Horizon Oil Sands,"Horizon Oil Sands,Hwy 63 North",Fort McMurray,AB,"T9H 5N4,NA",NA,56.7069,-111.3566
Tim Hortons - Horizon Oil Sands,"Horizon Oil Sands,Hwy 63 North",Fort McMurray,AB,"T9H 5N4,(780) 828-4351",(780) 828-4351,56.7069,-111.3566
Tim Hortons - Shell Albian Oil Fields,"Shell Albian Oil Fields,Albian Village",Fort McMurray,AB,"T9H 3W1,(780) 588-5417",(780) 588-5417,56.72595,-111.43453
Tim Hortons - 10080 88 Ave (DT),10080 88 Ave,Fort Saskatchewan,AB,"T8L 2T1,(780) 992-8467",(780) 992-8467,53.70011,-113.20456
Tim Hortons - 9817 101 St,9817 101 St,Fort Saskatchewan,AB,"T8L 1V5,(780) 997-0123",(780) 997-0123,53.70893,-113.2122
Tim Hortons - 10206 100 St (DT),10206 100 St,Grande Prairie,AB,"T8V 3K1,(780) 532-6660",(780) 532-6660,55.17259,-118.79491
Tim Hortons - 10432 100 Ave (DT),10432 100 Ave,Grande Prairie,AB,"T8V 2Z5,(780) 538-3494",(780) 538-3494,55.17043,-118.80634
Tim Hortons - 11740 100 St (DT),11740 100 St,Grande Prairie,AB,"T8V 4H5,(780) 513-8800",(780) 513-8800,55.18642,-118.79496
Tim Hortons - 11910 99 Avenue,11910 99 Avenue,Grande Prairie,AB,"T8W 0C7,(780) 814-9181",(780) 814-9181,55.18832,-118.78985
Tim Hortons - 520 Carmichael Lane (DT),520 Carmichael Lane,Hinton,AB,"T7V 1S8,(780) 865-4420",(780) 865-4420,53.39515,-117.60363
Tim Hortons - 4411 50th St (DT),4411 50th St,Innisfail,AB,"T4G 1P3,(403) 227-1143",(403) 227-1143,52.02737,-113.93937
Tim Hortons - 4924 46 St (DT),4924 46 St,Lacombe,AB,"T4L 2B4,(403) 782-0893",(403) 782-0893,52.46182,-113.72883
Tim Hortons - 5203 Discover Way (DT),5203 Discover Way,Leduc,AB,"T9E 6N4,(780) 986-7555",(780) 986-7555,53.26599,-113.57129
Tim Hortons - 5603 50 St,5603 50 St,Leduc,AB,"T9E 6Z7,(780) 986-8330",(780) 986-8330,53.27016,-113.55219
Tim Hortons - 8002 Sparrow Cres (DT),8002 Sparrow Cres,Leduc,AB,"T9E 7G1,(780) 980-6488",(780) 980-6488,53.30135,-113.54511
Tim Hortons - 2706 Mayor Magrath Dr S (DT),2706 Mayor Magrath Dr S,Lethbridge,AB,"T1K 7J5,(403) 381-0548",(403) 381-0548,49.66549,-112.7964
Tim Hortons - 2953 26th Avenue North (DT),2953 26th Avenue North,Lethbridge,AB,"T1H 5P4,(403) 381-3806",(403) 381-3806,49.72741,-112.79754
Tim Hortons - 3700 Mayor McGrath Dr.,3700 Mayor McGrath Dr.,Lethbridge,AB,"T1K 7T6,(403) 315-0017",(403) 315-0017,49.65904,-112.79334
Tim Hortons - 409 41st Street (DT),409 41st Street,Lethbridge,AB,"T1J 0P6,(403) 327-2970",(403) 327-2970,49.73872,-112.82963
Tim Hortons - 425 13 St N (DT),425 13 St N,Lethbridge,AB,"T1H 2S3,(403) 327-8681",(403) 327-8681,49.70492,-112.82414
Tim Hortons - 442 Scenic Dr (DT),442 Scenic Dr,Lethbridge,AB,"T1J 4S3,(403) 320-2656",(403) 320-2656,49.69344,-112.84478
Tim Hortons - 821 3rd Avenue South,821 3rd Avenue South,Lethbridge,AB,"T1J 0H8,(403) 327-5166",(403) 327-5166,49.696,-112.83524
Tim Hortons - 898 Heritage Blvd West (DT),898 Heritage Blvd West,Lethbridge,AB,"T1K 7V5,(403) 327-7298",(403) 327-7298,49.69731,-112.89293
Tim Hortons - University of Lethbridge,"University of Lethbridge,4401 University Dr",Lethbridge,AB,"T1K 3M4,(403) 329-2941",(403) 329-2941,49.67575,-112.86899
Tim Hortons - Walmart,"Walmart,3055 26th Ave N",Lethbridge,AB,"T1H 5P4,(403) 327-5090",(403) 327-5090,49.72753,-112.79749
Tim Hortons - 3902 50th Ave (DT),3902 50th Ave,Lloydminster,AB,"T9V 1B1,(780) 808-2253",(780) 808-2253,53.27424,-110.00554
Tim Hortons - 4301 75th Avenue (DT),4301 75th Avenue,Lloydminster,AB,"T9V 0A6,(780) 808-2600",(780) 808-2600,53.27763,-110.05478
Tim Hortons - 5401 44th St,5401 44th St,Lloydminster,AB,"T9V 0A9,(780) 875-4713",(780) 875-4713,53.27801,-110.01589
Tim Hortons - 1820 Strachan Road SE,1820 Strachan Road SE,Medicine Hat,AB,"T1B 4J8,(403) 528-2859",(403) 528-2859,50.00152,-110.65754
Tim Hortons - 2051 Strachan Road SE,2051 Strachan Road SE,Medicine Hat,AB,"T1B 0G4,(403) 528-2859",(403) 528-2859,50.00089,-110.65539
Tim Hortons - 2355 Trans Canada Way SE (DT),2355 Trans Canada Way SE,Medicine Hat,AB,"T1B 4E9,(403) 528-9797",(403) 528-9797,50.0027,-110.64494
Tim Hortons - 3201 13th Ave. SE (DT),3201 13th Ave. SE,Medicine Hat,AB,"T1B 1E2,(403) 504-0824",(403) 504-0824,50.00971,-110.66438
Tim Hortons - 550 3 St SW,550 3 St SW,Medicine Hat,AB,"T1A 0H3,(403) 527-1770",(403) 527-1770,50.03591,-110.69402
Tim Hortons - 749-1 Street SE (DT),749-1 Street SE,Medicine Hat,AB,"T1A 0B4,(403) 528-9440",(403) 528-9440,50.04271,-110.67324
Tim Hortons - Palliser Health Authority,"Palliser Health Authority,666 5 St SW",Medicine Hat,AB,"T1A 4H6,(403) 529-8806",(403) 529-8806,50.03432,-110.7021
Tim Hortons - 8809 - 100th St (DT),8809 - 100th St,Morinville,AB,"T8R 1V5,(780) 939-4452",(780) 939-4452,53.78565,-113.64485
Tim Hortons - 10 - 18 Southridge Dr (DT),10 - 18 Southridge Dr,Okotoks,AB,"T1S 1N1,(403) 995-2151",(403) 995-2151,50.7156,-113.98015
Tim Hortons - 5508 46 St (DT),5508 46 St,Olds,AB,"T4H 1B8,(403) 556-8467",(403) 556-8467,51.79502,-114.11549
Tim Hortons - 6700 46th Street (DT),6700 46th Street,Olds,AB,"T4H 0A2,(403) 507-8462",(403) 507-8462,51.79498,-114.1344
Tim Hortons - 7820 100 Ave (DT),7820 100 Ave,Peace River,AB,"T8S 2A3,(780) 624-1400",(780) 624-1400,56.23309,-117.30867
Tim Hortons - 4750 Highway 2A (DT),4750 Highway 2A,Ponoka,AB,"T4J 1K3,(403) 783-5594",(403) 783-5594,52.68062,-113.5831
Tim Hortons - 3020 22 St (DT),3020 22 St,Red Deer,AB,"T4R 3J5,(403) 352-7520",(403) 352-7520,52.23773,-113.76828
Tim Hortons - 4217 50th Avenue (DT),4217 50th Avenue,Red Deer,AB,"T4R 3Z4,(403) 343-1152",(403) 343-1152,52.24288,-113.81436
Tim Hortons - 5111 22 Street (DT),5111 22 Street,Red Deer,AB,"T4R 2K1,(403) 340-1420",(403) 340-1420,52.23889,-113.81642
Tim Hortons - 6620 Orr Dr (DT),6620 Orr Dr,Red Deer,AB,"T4P 3V8,(403) 341-3561",(403) 341-3561,52.28565,-113.85101
Tim Hortons - 6721 Gaetz Ave,6721 Gaetz Ave,Red Deer,AB,"T4N 4C9,(403) 342-1809",(403) 342-1809,52.26618,-113.81413
Tim Hortons - 7111 50 Ave (DT),7111 50 Ave,Red Deer,AB,"T4N 4E4,(403) 314-0767",(403) 314-0767,52.26472,-113.81419
"Tim Hortons - Red Deer College, The Forum","Red Deer College  The Forum,100 College Blvd",Red Deer,AB,"T4N 5H5,(403) 340-1393",(403) 340-1393,52.24674,-113.82782
Tim Hortons - 37444A Highway 2 S (DT),37444A Highway 2 S,Red Deer County,AB,"T4E 1B2,(403) 352-0001",(403) 352-0001,52.19405,-113.8173
Tim Hortons - 37543 Highway 2 North (DT),37543 Highway 2 North,Red Deer County,AB,"T4E 1B1,(403) 309-9939",(403) 309-9939,52.19405,-113.8173
Tim Hortons - 1475 Highway Ave S.E.,1475 Highway Ave S.E.,Redcliffe,AB,"T0J 2P0,(403) 548-7979",(403) 548-7979,50.06506,-110.78198
"Tim Hortons - 4403-41 Avenue, HWY 11 (DT)",4403-41 Avenue  HWY 11,Rocky Mountain House,AB,"T4T 1A6,(403) 845-6810",(403) 845-6810,52.37295,-114.9158
Tim Hortons - 100 - 664 Wye Rd (DT),100 - 664 Wye Rd,Sherwood Park,AB,"T8A 6G3,(780) 416-0062",(780) 416-0062,53.51217,-113.27308
Tim Hortons - 137 Main Blvd (DT),137 Main Blvd,Sherwood Park,AB,"T8A 3P3,(780) 449-4414",(780) 449-4414,53.53398,-113.29572
Tim Hortons - 2 Pembina Rd (DT),2 Pembina Rd,Sherwood Park,AB,"T8H 2G9,(780) 417-4643",(780) 417-4643,53.56572,-113.31987
Tim Hortons - 340 - 222 Baseline Rd (DT),340 - 222 Baseline Rd,Sherwood Park,AB,"T8H 1S8,(780) 467-0803",(780) 467-0803,53.5413,-113.31712
Tim Hortons - 90 - 993 Fir St,90 - 993 Fir St,Sherwood Park,AB,"T8A 4N5,(780) 467-4342",(780) 467-4342,53.51371,-113.3215
Tim Hortons - Lakeland Ridge (DT),"Lakeland Ridge,590 Baseline Rd",Sherwood Park,AB,"T8H 1Y4,(780) 416-9090",(780) 416-9090,53.54124,-113.28632
"Tim Hortons - 1500 Main St SW, Suite 100 (DT)",1500 Main St SW  Suite 100,Slave Lake,AB,"T0G 2A4,(780) 849-3395",(780) 849-3395,55.27244,-114.78044
Tim Hortons - 171 Highway 16 A (DT),171 Highway 16 A,Spruce Grove,AB,"T7X 4P9,(780) 948-0303",(780) 948-0303,53.53951,-113.92442
Tim Hortons - Westland Market,"Westland Market,70 McLeod Ave.",Spruce Grove,AB,"T7X 3C7,(780) 962-8946",(780) 962-8946,53.54316,-113.91429
Tim Hortons - 13080 St Albert Trail NW (DT),13080 St Albert Trail NW,St. Albert,AB,"T5L 4H5,(780) 482-5696",(780) 482-5696,53.59058,-113.56572
Tim Hortons - 470 St Albert Rd (DT),470 St Albert Rd,St. Albert,AB,"T8N 5J9,(780) 458-6867",(780) 458-6867,53.64676,-113.62731
"Tim Hortons - 700 St. Albert Rd, Unit 400 (DT)",700 St. Albert Rd  Unit 400,St. Albert,AB,"T8N 7A5,(780) 458-6884",(780) 458-6884,53.65767,-113.63055
Tim Hortons - Gateway Village Shopping Ctre (DT),"Gateway Village Shopping Ctre,2 Herbert Rd",St. Albert,AB,"T8N 5T8,(780) 460-1510",(780) 460-1510,53.62182,-113.60892
Tim Hortons - 6608 50th Ave (DT),6608 50th Ave,Stettler,AB,"T0C 2L9,(403) 742-1755",(403) 742-1755,52.32504,-112.73759
Tim Hortons - 4805 44th Avenue (DT),4805 44th Avenue,Stony Plain,AB,"T7Z 1V5,(780) 968-7110",(780) 968-7110,53.53558,-114.00417
Tim Hortons - B - (DT),"B -,72 Boulder Blvd",Stony Plain,AB,"T7Z 1V7,(780) 963-9656",(780) 963-9656,53.54241,-113.97812
"Tim Hortons - 800 Pine Rd, Unit 118 (DT)",800 Pine Rd  Unit 118,Strathmore,AB,"T1P 1C1,(403) 934-3141",(403) 934-3141,51.03755,-113.40277
Tim Hortons - 4 Erickson Drive (DT),4 Erickson Drive,Sylvan Lake,AB,"T4S 1P5,(403) 887-1068",(403) 887-1068,52.31526,-114.07114
Tim Hortons - 50 6200 46th Ave. (DT),50 6200 46th Ave.,Taber,AB,"T1G 2B1,(403) 223-8467",(403) 223-8467,49.78248,-112.14553
Tim Hortons - 6801 Hwy 16A West (DT),6801 Hwy 16A West,Vegreville,AB,"T9C 0A4,(780) 632-6090",(780) 632-6090,53.50553,-112.08487
Tim Hortons - 2710 13th Ave (DT),2710 13th Ave,Wainwright,AB,"P9W 0A1,(780) 842-9154",(780) 842-9154,52.84229,-110.84907
Tim Hortons - 3600 56 Street (DT),3600 56 Street,Wetaskiwin,AB,"T9A 3TA,(780) 352-7100",(780) 352-7100,52.96369,-113.39028
Tim Hortons - 4914 56 St (DT),4914 56 St,Wetaskiwin,AB,"T9A 1V8,(780) 352-8484",(780) 352-8484,52.97041,-113.3903
Tim Hortons - 4216 Elko Dr (DT),4216 Elko Dr,Whitecourt,AB,"T7S 1P5,(780) 778-8771",(780) 778-8771,54.13169,-115.67014
Tim Hortons - 160 Caribou Hwy N (DT),160 Caribou Hwy N,100 Mile House,BC,"V0K 2E0,(250) 395-7733",(250) 395-7733,51.64616,-121.29463
Tim Hortons - 1255 Sumas Way (DT),1255 Sumas Way,Abbotsford,BC,"V2S 8H2,(604) 855-1703",(604) 855-1703,49.02515,-122.26536
Tim Hortons - 1861 Sumas Way (DT),1861 Sumas Way,Abbotsford,BC,"V2S 4L5,(604) 855-3527",(604) 855-3527,49.0363,-122.2676
Tim Hortons - 1915 McCallum Rd (DT),1915 McCallum Rd,Abbotsford,BC,"V2S 3N1,(604) 855-8822",(604) 855-8822,49.0369,-122.29327
Tim Hortons - 2054 Whatcom Rd (DT),2054 Whatcom Rd,Abbotsford,BC,"V3G 2K8,(604) 855-9655",(604) 855-9655,49.04036,-122.22129
Tim Hortons - 2935 Blue Jay Road (DT),2935 Blue Jay Road,Abbotsford,BC,"V2T 2J3,(604) 859-0945",(604) 859-0945,49.05582,-122.37043
Tim Hortons - 30340 Automall Dr (DT),30340 Automall Dr,Abbotsford,BC,"V2T 5M1,(604) 857-7733",(604) 857-7733,49.06114,-122.38272
Tim Hortons - 32780 South Fraser Way (DT),32780 South Fraser Way,Abbotsford,BC,"V2T 4M5,(604) 870-9499",(604) 870-9499,49.05108,-122.31557
Tim Hortons - University College of the Fraser Valley,"University College of the Fraser Valley,33844 King Rd.",Abbotsford,BC,"V2S 7M8,NA",NA,49.03131,-122.28618
Tim Hortons - 26431 Fraser Hwy (DT),26431 Fraser Hwy,Aldergrove,BC,"V4W 3E2,(604) 857-5337",(604) 857-5337,49.05946,-122.49171
Tim Hortons - 2 - 6100 McKay Ave,2 - 6100 McKay Ave,Burnaby,BC,"V5H 4L6,(604) 436-1690",(604) 436-1690,49.22877,-123.0035
Tim Hortons - 3700 Willingdon Avenue,3700 Willingdon Avenue,Burnaby,BC,V5G 3H2,,49.25173,-123.00409
Tim Hortons - 3965 North Rd,3965 North Rd,Burnaby,BC,"V3J 1S2,(604) 420-2793",(604) 420-2793,49.24839,-122.8928
Tim Hortons - 4191 Lougheed Hwy (DT),4191 Lougheed Hwy,Burnaby,BC,"V5C 3Y6,(604) 294-0470",(604) 294-0470,49.26641,-123.01074
Tim Hortons - 4444 Kingsway,4444 Kingsway,Burnaby,BC,"V5C 3Z4,(604) 437-5122",(604) 437-5122,49.23046,-123.00562
Tim Hortons - 4512 Lougheed Hwy,4512 Lougheed Hwy,Burnaby,BC,"V5C 3Z4,(604) 294-0471",(604) 294-0471,49.26633,-123.00285
Tim Hortons - 4820 Kingsway St,4820 Kingsway St,Burnaby,BC,"V5H 4P1,(604) 439-7410",(604) 439-7410,49.22729,-122.99589
Tim Hortons - 5059 Canada Way,5059 Canada Way,Burnaby,BC,"V5E 3N1,(604) 521-3309",(604) 521-3309,49.23954,-122.96349
Tim Hortons - 6641 Kingsway,6641 Kingsway,Burnaby,BC,"V5E 1E2,(604) 437-5125",(604) 437-5125,49.21848,-122.96544
Tim Hortons - 7089 Lougheed Hwy,7089 Lougheed Hwy,Burnaby,BC,"V5A 1W1,(604) 420-7969",(604) 420-7969,49.25875,-122.95587
Tim Hortons - 7380 Market Crossing (DT),7380 Market Crossing,Burnaby,BC,"V5J 3H6,(604) 456-0331",(604) 456-0331,49.19585,-122.99331
Tim Hortons - 9855 Austin Rd Unit 150,9855 Austin Rd Unit 150,Burnaby,BC,"V3J 1N4,(604) 420-2027",(604) 420-2027,49.24899,-122.89591
Tim Hortons - Burnaby General Hospital,"Burnaby General Hospital,3935 Kincaid St",Burnaby,BC,"V5G 2X6,NA",NA,49.24877,-123.01685
Tim Hortons - 1325 Island Hwy (DT),1325 Island Hwy,Campbell River,BC,"V9W 8C2,(250) 286-3400",(250) 286-3400,50.03192,-125.24685
Tim Hortons - 465 Merecroft Rd (DT),465 Merecroft Rd,Campbell River,BC,"V9W 6K6,(250) 286-3401",(250) 286-3401,50.00028,-125.24587
Tim Hortons - 1465 Columbia Ave (DT),1465 Columbia Ave,Castlegar,BC,"V1N 1H8,(250) 365-2992",(250) 365-2992,49.30646,-117.65854
Tim Hortons - 43971 Industrial Way (DT),43971 Industrial Way,Chilliwack,BC,"V2R 3A4,(604) 792-4492",(604) 792-4492,49.14495,-122.00776
Tim Hortons - 45571 Yale Rd (DT),45571 Yale Rd,Chilliwack,BC,"V2P 2N1,(604) 793-6856",(604) 793-6856,49.15254,-121.96363
Tim Hortons - 45600 Menholm Rd,45600 Menholm Rd,Chilliwack,BC,"V2P 1P7,(604) 703-2023",(604) 703-2023,49.16578,-121.96251
Tim Hortons - 45837 Yale Rd (DT),45837 Yale Rd,Chilliwack,BC,"V2P 2N6,(604) 792-3423",(604) 792-3423,49.16445,-121.95901
Tim Hortons - 46345 Yale Rd (DT),46345 Yale Rd,Chilliwack,BC,"V2P 2P8,(604) 792-1300",(604) 792-1300,49.17421,-121.94372
Tim Hortons - 6640 Vedder Rd (DT),6640 Vedder Rd,Chilliwack,BC,"V2R 0J2,(604) 858-8300",(604) 858-8300,49.12191,-121.95973
Tim Hortons - Vedder Crossing Plaza (DT),"Vedder Crossing Plaza,6014 Vedder Rd",Chilliwack,BC,"V2R 5M4,(604) 858-6653",(604) 858-6653,49.11152,-121.95789
Tim Hortons - 17878 56 Ave (DT),17878 56 Ave,Cloverdale,BC,"V3S 1C7,(604) 575-4774",(604) 575-4774,49.10414,-122.72749
Tim Hortons - 1820 Island Highway (DT),1820 Island Highway,Colwood,BC,"V9B 1J2,(250) 478-0356",(250) 478-0356,48.44428,-123.46762
Tim Hortons - 727 Anderton Rd (DT),727 Anderton Rd,Comox,BC,"V9M 4A9,(250) 339-3926",(250) 339-3926,49.6883,-124.93485
Tim Hortons - 1450 United Blvd (DT),1450 United Blvd,Coquitlam,BC,"V3K 6Y2,(604) 515-4252",(604) 515-4252,49.22801,-122.84015
Tim Hortons - 2635 Barnet Hwy (DT),2635 Barnet Hwy,Coquitlam,BC,"V3E 1K9,(604) 944-2637",(604) 944-2637,49.27784,-122.81548
Tim Hortons - Douglas College,"Douglas College,1250 Pinetree Way",Coquitlam,BC,"V3B 7X3,(604) 777-6256",(604) 777-6256,49.28796,-122.7908
Tim Hortons - 2451 Cliffe Ave,2451 Cliffe Ave,Courtenay,BC,"V9N 2L5,(250) 338-6728",(250) 338-6728,49.67707,-124.98334
Tim Hortons - 789 Ryan Rd,789 Ryan Rd,Courtenay,BC,"V9N 3R6,(250) 338-9401",(250) 338-9401,49.69806,-124.98886
Tim Hortons - 1875 Cranbrook St N (DT),1875 Cranbrook St N,Cranbrook,BC,"V1C 3S9,(250) 417-0010",(250) 417-0010,49.52982,-115.74754
Tim Hortons - 11608 8 St (DT),11608 8 St,Dawson Creek,BC,"V1G 4R7,(250) 784-0202",(250) 784-0202,55.74108,-120.22413
Tim Hortons - 10108 Nordel Crt (DT),10108 Nordel Crt,Delta,BC,"V4G 1J7,(604) 582-5841",(604) 582-5841,49.14919,-122.94312
Tim Hortons - 1211 56th St,1211 56th St,Delta,BC,"V4L 2A6,(604) 948-2356",(604) 948-2356,49.02488,-123.06867
Tim Hortons - 1359 Cliveden Ave (DT),1359 Cliveden Ave,Delta,BC,"V3M 6C7,(604) 526-6635",(604) 526-6635,49.16898,-122.95763
Tim Hortons - 7981 120 St,7981 120 St,Delta,BC,"V4C 6P6,(604) 572-9444",(604) 572-9444,49.14827,-122.89035
Tim Hortons - 9591 Ladner Trunk Rd (DT),9591 Ladner Trunk Rd,Delta,BC,"V4K 3N3,(604) 590-0766",(604) 590-0766,49.09188,-122.9572
Tim Hortons - 2628 Beverly St (DT),2628 Beverly St,Duncan,BC,"V9L 5C7,(250) 709-2205",(250) 709-2205,48.78551,-123.7018
Tim Hortons - 1701 9th Ave (DT),1701 9th Ave,Fernie,BC,"V0B 1M0,(250) 423-7709",(250) 423-7709,49.5163,-115.05986
Tim Hortons - 10540 100 St (DT),10540 100 St,Fort St John,BC,"V1J 3Z6,(250) 787-8449",(250) 787-8449,56.25133,-120.84747
Tim Hortons - 8804 96A St (DT),8804 96A St,Fort St John,BC,"V1J 6E2,(250) 787-8467",(250) 787-8467,56.24927,-120.84026
Tim Hortons - 1078 Gibsons Way (DT),1078 Gibsons Way,Gibsons,BC,"V0N 1V0,(604) 886-0882",(604) 886-0882,49.40681,-123.51341
Tim Hortons - 1421 Trans Canada Hwy (DT),1421 Trans Canada Hwy,Golden,BC,"V0A 1H2,(250) 439-1964",(250) 439-1964,51.31656,-116.97348
Tim Hortons - 496 Hwy 93/95 (DT),496 Hwy 93/95,Invermere,BC,"V0A 1K0,(250) 341-3777",(250) 341-3777,49.2471,-117.66322
Tim Hortons - 1120 Rogers Way,1120 Rogers Way,Kamloops,BC,"V1S 1N5,(250) 374-3230",(250) 374-3230,50.65194,-120.36746
Tim Hortons - 1285 Rogers Way (DT),1285 Rogers Way,Kamloops,BC,"V1S 1R9,(250) 372-3101",(250) 372-3101,50.65125,-120.36966
Tim Hortons - 1301 Salish Road (DT),1301 Salish Road,Kamloops,BC,"V2C 1K1,(250) 828-1883",(250) 828-1883,50.70804,-120.33702
Tim Hortons - 1723 East Trans Canada Hwy (DT),1723 East Trans Canada Hwy,Kamloops,BC,"V2C 3Z6,(250) 372-2382",(250) 372-2382,50.67532,-120.2914
Tim Hortons - 1835 East Trans Canada Hwy (DT),1835 East Trans Canada Hwy,Kamloops,BC,"V2C 3Z6,(250) 828-6664",(250) 828-6664,50.67811,-120.28335
Tim Hortons - 450 Lansdowne St (DT),450 Lansdowne St,Kamloops,BC,"V2C 1Y3,(250) 571-1333",(250) 571-1333,50.67668,-120.33079
Tim Hortons - 481 Tranquille Rd,481 Tranquille Rd,Kamloops,BC,"V2B 3H3,(250) 376-1412",(250) 376-1412,50.69213,-120.35922
Tim Hortons - 910 Columbia St W,910 Columbia St W,Kamloops,BC,"V2C 1L2,(250) 828-1922",(250) 828-1922,50.66823,-120.35436
Tim Hortons - Thompson Rivers University,"Thompson Rivers University,900 McGill Rd",Kamloops,BC,"V2C 5N3,(250) 371-5720",(250) 371-5720,50.66764,-120.36404
Tim Hortons - 160 Hollywood Rd N (DT),160 Hollywood Rd N,Kelowna,BC,"V1X 6Y9,(250) 763-9818",(250) 763-9818,49.88987,-119.39955
Tim Hortons - 1694 Powick Rd (DT),1694 Powick Rd,Kelowna,BC,"V1X 7G5,(250) 717-3997",(250) 717-3997,49.88934,-119.42328
Tim Hortons - 1901 Harvey Ave (DT),1901 Harvey Ave,Kelowna,BC,"V1Y 6G5,(250) 869-0855",(250) 869-0855,49.88198,-119.45446
Tim Hortons - 1936 Kane Rd (DT),1936 Kane Rd,Kelowna,BC,"V1V 2J9,(250) 712-0919",(250) 712-0919,49.91528,-119.44361
Tim Hortons - 2090C Harvey Ave,2090C Harvey Ave,Kelowna,BC,"V1Y 8P8,(250) 763-9898",(250) 763-9898,49.88191,-119.44413
Tim Hortons - 2380 Highway 97 N,2380 Highway 97 N,Kelowna,BC,"V1X 4H8,(250) 763-8686",(250) 763-8686,49.88358,-119.43076
Tim Hortons - 3135 Gordon Dr,3135 Gordon Dr,Kelowna,BC,"V1W 3N4,(250) 861-4002",(250) 861-4002,49.86036,-119.47444
Tim Hortons - 3255 Lakeshore Rd,3255 Lakeshore Rd,Kelowna,BC,"V1W 3S9,(250) 712-9881",(250) 712-9881,49.8588,-119.49114
Tim Hortons - 3333 University Way,3333 University Way,Kelowna,BC,"V1V 1V7,(250) 807-8060",(250) 807-8060,49.94016,-119.39327
Tim Hortons - 3491 Sexsmith Rd (DT),3491 Sexsmith Rd,Kelowna,BC,"V1X 7T5,(250) 765-9434",(250) 765-9434,49.91814,-119.38837
Tim Hortons - Orchard Park Mall,"Orchard Park Mall,2271 Harvey Ave.",Kelowna,BC,"V1Y 6H2,(250) 861-5961",(250) 861-5961,49.88188,-119.43838
Tim Hortons - 1115 1st Ave (DT),1115 1st Ave,Ladysmith,BC,"V9G 1A4,(250) 245-2303",(250) 245-2303,48.99704,-123.82296
Tim Hortons - 11852 Hwy 97 North (DT),11852 Hwy 97 North,Lake Country,BC,V4V 1E3,,50.05857,-119.40739
Tim Hortons - 739 McCallum Rd. (DT),739 McCallum Rd.,Langford,BC,"V9B 6A2,(250) 478-4424",(250) 478-4424,48.45993,-123.50052
Tim Hortons - 845 Goldstream Ave (DT),845 Goldstream Ave,Langford,BC,"V9B 2X8,(250) 478-2422",(250) 478-2422,48.44982,-123.50355
Tim Hortons - Canwest Shopping Cntr (DT),"Canwest Shopping Cntr,2945 Jacklin Rd",Langford,BC,"V9B 5E3,(250) 478-6660",(250) 478-6660,48.44027,-123.51163
Tim Hortons - 19712 Fraser Hwy (DT),19712 Fraser Hwy,Langley,BC,"V3A 4C7,(604) 533-4905",(604) 533-4905,49.11284,-122.67744
Tim Hortons - 19840 96 Ave,19840 96 Ave,Langley,BC,"V3A 2Y3,(604) 888-7651",(604) 888-7651,49.17699,-122.67384
Tim Hortons - 19875 96 Ave (DT),19875 96 Ave,Langley,BC,"V1M 3C7,(604) 513-9908",(604) 513-9908,49.17699,-122.67081
Tim Hortons - 20159 88th Ave (DT),20159 88th Ave,Langley,BC,"V1M 0A4,(604) 513-4449",(604) 513-4449,49.16314,-122.66309
Tim Hortons - 20250 88th Ave (DT),20250 88th Ave,Langley,BC,"V2Y 2B9,(604) 888-7101",(604) 888-7101,49.16368,-122.66445
Tim Hortons - 20270 Logan Ave (DT),20270 Logan Ave,Langley,BC,"V3A 4L6,(604) 530-4909",(604) 530-4909,49.11131,-122.66672
Tim Hortons - 21612 Fraser Hwy (DT),21612 Fraser Hwy,Langley,BC,"V3A 4G9,(604) 533-1606",(604) 533-1606,49.10499,-122.65783
Tim Hortons - 26474 56 Ave (DT),26474 56 Ave,Langley,BC,"V4W 3Z3,(604) 857-0535",(604) 857-0535,49.10457,-122.63869
Tim Hortons - 7272 200th Street (DT),7272 200th Street,Langley,BC,"V2Y 1S7,(604) 530-4902",(604) 530-4902,49.11341,-122.66864
Tim Hortons - 8590 200th Street (DT),8590 200th Street,Langley,BC,"V2Y 2B9,(604) 513-9927",(604) 513-9927,49.11341,-122.66864
Tim Hortons - Logan Creek Shopping Plaza (DT),"Logan Creek Shopping Plaza,20020 Willowbrook Dr E",Langley,BC,"V2Y 2T4,(604) 530-4910",(604) 530-4910,49.11539,-122.66597
Tim Hortons - 100 - 20201 Lougheed Hwy (DT),100 - 20201 Lougheed Hwy,Maple Ridge,BC,"V2X 2P6,(604) 465-2002",(604) 465-2002,49.21959,-122.6593
Tim Hortons - 11811 - 224 Street,11811 - 224 Street,Maple Ridge,BC,"V2X 0P1,(604) 466-8001",(604) 466-8001,49.21709,-122.60158
Tim Hortons - 22987 Dewdney Trunk Rd (DT),22987 Dewdney Trunk Rd,Maple Ridge,BC,"V2X 3K8,(604) 466-0671",(604) 466-0671,49.22035,-122.58505
Tim Hortons - 24796 Dewdney Trunk Rd,24796 Dewdney Trunk Rd,Maple Ridge,BC,"V4R 1X3,(604) 463-4240",(604) 463-4240,49.2203,-122.53484
Tim Hortons - 3340 River Ranch Rd (DT),3340 River Ranch Rd,Merritt,BC,"V1K 1M5,(250) 378-4661",(250) 378-4661,50.12273,-120.7638
Tim Hortons - 825 Deloume Rd (DT),825 Deloume Rd,Mill Bay,BC,"V0R 2P0,(250) 743-5022",(250) 743-5022,48.65233,-123.56068
Tim Hortons - 32525 London Ave (DT),32525 London Ave,Mission,BC,"V2V 6M7,(604) 826-3398",(604) 826-3398,49.12884,-122.31872
Tim Hortons - 33291 1st Ave,33291 1st Ave,Mission,BC,"V2V 1J9,(604) 820-6360",(604) 820-6360,49.13438,-122.30245
Tim Hortons - 15 Wallace St (DT),15 Wallace St,Nanaimo,BC,"V9R 5A8,(250) 740-1009",(250) 740-1009,49.16996,-123.94216
Tim Hortons - 1812 Bowen Rd (DT),1812 Bowen Rd,Nanaimo,BC,"V9S 5W4,(250) 755-3001",(250) 755-3001,49.18235,-123.98072
Tim Hortons - 1980 Island Hwy N (DT),1980 Island Hwy N,Nanaimo,BC,"V9S 5W3,(250) 729-9006",(250) 729-9006,49.19057,-123.9675
Tim Hortons - 200 - 2980 Island Hwy N,200 - 2980 Island Hwy N,Nanaimo,BC,"V9T 5V4,(250) 756-7769",(250) 756-7769,49.2144,-124.02925
Tim Hortons - 6892 Island Hwy N (DT),6892 Island Hwy N,Nanaimo,BC,"V9V 1P6,(250) 390-1600",(250) 390-1600,49.23894,-124.04998
Tim Hortons - South Gate Mall (DT),"South Gate Mall,48 10th Street",Nanaimo,BC,"V9R 6L1,(250) 754-8850",(250) 754-8850,49.13085,-123.92343
Tim Hortons - 524 Sixth St,524 Sixth St,New Westminster,BC,"V3L 3B1,(604) 519-1294",(604) 519-1294,49.2124,-122.91945
Tim Hortons - 736 Sixth Ave,736 Sixth Ave,New Westminster,BC,"V3M 2B4,(604) 525-6682",(604) 525-6682,49.21195,-122.92254
Tim Hortons - 780 6th St,780 6th St,New Westminster,BC,"V3L 3C7,(604) 516-6443",(604) 516-6443,49.21579,-122.92355
Tim Hortons - 805 Boyd St (DT),805 Boyd St,New Westminster,BC,"V3M 5X2,(604) 515-0132",(604) 515-0132,49.19095,-122.94641
Tim Hortons - Royal Columbian Hospital,"Royal Columbian Hospital,330 East Columbia St",New Westminster,BC,"V3L 3W7,(604) 523-8815",(604) 523-8815,49.22639,-122.89287
Tim Hortons - 2927 Drinkwater Rd (DT),2927 Drinkwater Rd,North Duncan,BC,"V9L 6C6,(250) 715-0225",(250) 715-0225,48.80312,-123.71759
Tim Hortons - Victoria International Airport,"Victoria International Airport,1640 Electra Blvd",North Saanich,BC,"V8L 5V4,(250) 655-3718",(250) 655-3718,48.64001,-123.42891
Tim Hortons - 106 Queens Rd W (DT),106 Queens Rd W,North Vancouver,BC,"V7N 2K3,(604) 988-9968",(604) 988-9968,49.33652,-123.07212
Tim Hortons - 132 Esplanade West,132 Esplanade West,North Vancouver,BC,"V7M 1A2,(604) 980-5085",(604) 980-5085,49.31161,-123.08031
Tim Hortons - 1384 Main St (DT),1384 Main St,North Vancouver,BC,"V7J 1C6,(604) 924-9897",(604) 924-9897,49.30655,-123.03462
Tim Hortons - 1409 Marine Dr,1409 Marine Dr,North Vancouver,BC,"V7P 1T5,(604) 983-8729",(604) 983-8729,49.32386,-123.11343
Tim Hortons - 1509 Lonsdale Ave.,1509 Lonsdale Ave.,North Vancouver,BC,"V7M 2J2,(604) 985-3658",(604) 985-3658,49.32259,-123.07246
Tim Hortons - 1712  Lonsdale Ave,1712  Lonsdale Ave,North Vancouver,BC,"V7M 2J7,(604) 985-4131",(604) 985-4131,49.32425,-123.07222
Tim Hortons - 177 3rd St W,177 3rd St W,North Vancouver,BC,"V7M 1E7,(604) 986-5323",(604) 986-5323,49.31451,-123.07943
Tim Hortons - 194 Riverside Dr (DT),194 Riverside Dr,North Vancouver,BC,"V7H 1T9,(604) 924-9865",(604) 924-9865,49.30498,-123.01902
Tim Hortons - 2501 Westview Dr,2501 Westview Dr,North Vancouver,BC,"V7N 4M2,(604) 988-0416",(604) 988-0416,49.33231,-123.08813
Tim Hortons - 2747 Mountain Hwy (DT),2747 Mountain Hwy,North Vancouver,BC,"V7J 2N7,(604) 986-9114",(604) 986-9114,49.33373,-123.0379
Tim Hortons - Capilano College,"Capilano College,2055 Purcell Way",North Vancouver,BC,"V7J 3H5,(604) 984-4970",(604) 984-4970,49.31746,-123.02134
Tim Hortons - Capilano Mall,"Capilano Mall,935 Marine Drive",North Vancouver,BC,"V7P 1S3,(604) 929-9160",(604) 929-9160,49.32264,-123.09888
Tim Hortons - 8907 Main St (DT),8907 Main St,Osoyoos,BC,"V0H 1V0,(250) 495-4550",(250) 495-4550,49.03265,-119.46932
Tim Hortons - 494 Island Hwy. E (DT),494 Island Hwy. E,Parksville,BC,"V9P 2H3,(250) 248-0094",(250) 248-0094,49.31795,-124.29704
Tim Hortons - 1077 Westminster Ave W (DT),1077 Westminster Ave W,Penticton,BC,"V2A 1L4,(250) 493-1266",(250) 493-1266,49.496,-119.61308
Tim Hortons - 234 Main St,234 Main St,Penticton,BC,"V2A 5B2,(250) 493-4455",(250) 493-4455,49.49989,-119.59304
Tim Hortons - 2695 Skaha Lake Road (DT),2695 Skaha Lake Road,Penticton,BC,"V2A-6E8,(250) 493-4477",(250) 493-4477,49.46596,-119.5863
Tim Hortons - 19800 Lougheed Hwy (DT),19800 Lougheed Hwy,Pitt Meadows,BC,"V3Y 2W1,(604) 465-3009",(604) 465-3009,49.22375,-122.67071
Tim Hortons - 4550 Johnston Rd (DT),4550 Johnston Rd,Port Alberni,BC,"V9Y 8J2,(250) 723-4211",(250) 723-4211,49.26016,-124.80634
Tim Hortons - 1320 Kingsway Ave (DT),1320 Kingsway Ave,Port Coquitlam,BC,"V3C 6P4,(604) 468-8870",(604) 468-8870,49.24693,-122.7486
Tim Hortons - 1525 Lougheed Hwy (DT),1525 Lougheed Hwy,Port Coquitlam,BC,"V3B 1A5,(604) 464-6225",(604) 464-6225,49.25993,-122.75723
Tim Hortons - 2090 Lougheed Hwy,2090 Lougheed Hwy,Port Coquitlam,BC,"V3B 1H4,(604) 464-6045",(604) 464-6045,49.26536,-122.7715
Tim Hortons - 103 Ioco Rd,103 Ioco Rd,Port Moody,BC,"V3H 2V3,(604) 461-3319",(604) 461-3319,49.2778,-122.82713
Tim Hortons - 3300 Massey Drive (DT),3300 Massey Drive,Prince George,BC,"V2N 4C1,(250) 563-7145",(250) 563-7145,53.89965,-122.78222
Tim Hortons - 4114 15th Ave (DT),4114 15th Ave,Prince George,BC,"V2M 1V8,(250) 614-4335",(250) 614-4335,53.91025,-122.79761
Tim Hortons - 5808 Southridge Ave (DT),5808 Southridge Ave,Prince George,BC,"V2N 7A1,(250) 964-2521",(250) 964-2521,53.85884,-122.78165
Tim Hortons - 612 East Central Ave (DT),612 East Central Ave,Prince George,BC,"V2M 3B7,(250) 562-1672",(250) 562-1672,53.91764,-122.78115
Tim Hortons - 6720 Hart Hwy (DT),6720 Hart Hwy,Prince George,BC,"V2K 3A6,(250) 962-0592",(250) 962-0592,53.98958,-122.78648
Tim Hortons - 880 Victoria St (DT),880 Victoria St,Prince George,BC,"V2L 5P1,(250) 562-6332",(250) 562-6332,53.9134,-122.75282
Tim Hortons - University of Northern BC,"University of Northern BC,3333 University Way",Prince George,BC,"V2N 4Z9,(250) 960-5785",(250) 960-5785,53.89034,-122.80855
Tim Hortons - 636 2nd Ave W,636 2nd Ave W,Prince Rupert,BC,"V8J 1H2,(250) 624-2999",(250) 624-2999,54.31194,-130.32802
Tim Hortons - 382 Front St,382 Front St,Quesnel,BC,"V2J 2K3,(250) 992-6691",(250) 992-6691,52.9784,-122.49829
Tim Hortons - 685 Newman Rd (DT),685 Newman Rd,Quesnel,BC,"V2J 7A4,(250) 747-0559",(250) 747-0559,52.96963,-122.44139
Tim Hortons - 1840 Trans Canada Hwy (DT),1840 Trans Canada Hwy,Revelstoke,BC,"V0E 2S0,(250) 837-3001",(250) 837-3001,51.00979,-118.21539
Tim Hortons - 11320 Steveston Hwy (DT),11320 Steveston Hwy,Richmond,BC,"V7A 5J5,(604) 277-8467",(604) 277-8467,49.13335,-123.0991
Tim Hortons - 4151 3 Rd (DT),4151 3 Rd,Richmond,BC,"V6X 2C3,(604) 270-2241",(604) 270-2241,49.1329,-123.18565
Tim Hortons - 6551 3 Road,6551 3 Road,Richmond,BC,"V6Y 2B6,(604) 278-2845",(604) 278-2845,49.1329,-123.18565
Tim Hortons - 7771 Alderbridge Way,7771 Alderbridge Way,Richmond,BC,"V6X 2A4,(604) 270-1505",(604) 270-1505,49.17563,-123.1418
Tim Hortons - 9731 Bridgeport Rd (DT),9731 Bridgeport Rd,Richmond,BC,"V6X 1S3,(604) 207-2438",(604) 207-2438,49.19198,-123.11555
Tim Hortons - Vancouver International Airport - Domestic Terminal Arrivals,"Vancouver International Airport - Domestic Terminal Arrivals,3880 Grant McConachie Way",Richmond,BC,"V7B 1Y7,(604) 231-3731",(604) 231-3731,49.18449,-123.13848
Tim Hortons - Vancouver International Airport - Domestic Terminal Departures,"Vancouver International Airport - Domestic Terminal Departures,3880 Grant McConachie Way",Richmond,BC,"V7B 1Y7,(604) 231-3731",(604) 231-3731,49.20426,-123.20062
Tim Hortons - Vancouver International Airport - Pre Security US Departures,"Vancouver International Airport - Pre Security US Departures,3211 Grant McConachie Way",Richmond,BC,"V7B 1Y7,(604) 231-3731",(604) 231-3731,49.18449,-123.13848
"Tim Hortons - 110, 4440 West Saanich Rd",110  4440 West Saanich Rd,Saanich,BC,"V8Z 3E9,(250) 744-4139",(250) 744-4139,48.49255,-123.38706
Tim Hortons - 2471 Mount Newton Cross Rd,2471 Mount Newton Cross Rd,Saanich,BC,"V8M 2B7,(604) 652-1153",(604) 652-1153,48.59413,-123.39688
Tim Hortons - 270 4 St NE (DT),270 4 St NE,Salmon Arm,BC,"V1E 4S1,(250) 833-0584",(250) 833-0584,50.70234,-119.27964
Tim Hortons - 2931 9 Ave NE (DT),2931 9 Ave NE,Salmon Arm,BC,"V1E 2S7,(250) 833-1925",(250) 833-1925,50.70645,-119.25048
Tim Hortons - 7670 Vedder Rd,7670 Vedder Rd,Sardis,BC,"V2R 4G9,(604) 858-4422",(604) 858-4422,49.142,-121.96053
Tim Hortons - 814 Trans Canada Hwy (DT),814 Trans Canada Hwy,Sicamous,BC,"V0E 2V0,(250) 836-5333",(250) 836-5333,50.83772,-118.97428
Tim Hortons - 3932 Highway 16 (DT),3932 Highway 16,Smithers,BC,"V0J 2N6,(250) 847-5118",(250) 847-5118,54.77295,-127.14722
Tim Hortons - 38930 Progress Way (DT),38930 Progress Way,Squamish,BC,"V0N 3G0,(604) 815-4311",(604) 815-4311,49.71628,-123.14949
Tim Hortons - 7710 Prairie Valley Rd (DT),7710 Prairie Valley Rd,Summerland,BC,"V0H 1Z4,(250) 494-7729",(250) 494-7729,49.60285,-119.66756
Tim Hortons - 1 - 1767 152 St,1 - 1767 152 St,Surrey,BC,"V4A 4N3,(604) 531-5111",(604) 531-5111,49.03418,-122.80119
Tim Hortons - 101 - 15551 Fraser Hwy,101 - 15551 Fraser Hwy,Surrey,BC,"V3S 2V8,(604) 583-1332",(604) 583-1332,49.16207,-122.79098
Tim Hortons - 101 - 16033 108 Ave,101 - 16033 108 Ave,Surrey,BC,"V4N 1P2,(604) 583-2351",(604) 583-2351,49.19881,-122.77768
Tim Hortons - 10153 King George Hwy,10153 King George Hwy,Surrey,BC,"V3T 5H9,(604) 582-9157",(604) 582-9157,49.18704,-122.84554
Tim Hortons - 10320 152 St,10320 152 St,Surrey,BC,"V3R 4G8,(604) 581-7722",(604) 581-7722,49.18949,-122.80081
Tim Hortons - 10376 152nd Street (DT),10376 152nd Street,Surrey,BC,"V3R 4G8,(604) 584-1358",(604) 584-1358,49.18949,-122.80081
Tim Hortons - 10416 King George Highway (DT),10416 King George Highway,Surrey,BC,"V3T 2W8,(604) 582-0905",(604) 582-0905,49.19164,-122.84529
Tim Hortons - 12110 Nordel Way (DT),12110 Nordel Way,Surrey,BC,"V3W 1P6,(604) 572-4802",(604) 572-4802,49.16216,-122.88599
Tim Hortons - 12169 72 Ave (DT),12169 72 Ave,Surrey,BC,"V3W 2M1,(604) 501-2253",(604) 501-2253,49.13402,-122.88558
Tim Hortons - 14445 64th Ave (DT),14445 64th Ave,Surrey,BC,"V3X 1A1,(604) 501-4924",(604) 501-4924,49.11911,-122.82209
Tim Hortons - 15255 56 Ave (DT),15255 56 Ave,Surrey,BC,"V3S 0X9,(604) 575-8338",(604) 575-8338,49.10441,-122.79985
Tim Hortons - 16811 96 Ave,16811 96 Ave,Surrey,BC,"V4N 2C5,(604) 581-6112",(604) 581-6112,49.17698,-122.75628
Tim Hortons - 17695 64th Avenue (DT),17695 64th Avenue,Surrey,BC,"V3S 1Z2,(604) 575-3774",(604) 575-3774,49.11877,-122.73037
Tim Hortons - 2355 160th Street,2355 160th Street,Surrey,BC,"V3S 9N6,(604) 531-5770",(604) 531-5770,49.04448,-122.77917
Tim Hortons - 2360 King George Hwy,2360 King George Hwy,Surrey,BC,"V4A 5A5,(604) 531-1088",(604) 531-1088,49.04298,-122.79034
Tim Hortons - 3077 152 St (DT),3077 152 St,Surrey,BC,"V4P 3K1,(604) 538-8198",(604) 538-8198,49.05697,-122.80121
Tim Hortons - 401-18682 Fraser Hwy (DT),401-18682 Fraser Hwy,Surrey,BC,"V3S 7Y4,(778) 571-0394",(778) 571-0394,49.12509,-122.70466
Tim Hortons - 6422 120th Street (DT),6422 120th Street,Surrey,BC,"V3W 3M5,778-578-7896",778-578-7896,49.14238,-122.89039
Tim Hortons - 7195 King George Hwy (DT),7195 King George Hwy,Surrey,BC,"V3W 5A4,(604) 507-7678",(604) 507-7678,49.13348,-122.84564
Tim Hortons - 7272 King George Hwy (DT),7272 King George Hwy,Surrey,BC,"V3W 5A5,(604) 596-5661",(604) 596-5661,49.13473,-122.84564
Tim Hortons - 8215 166th Street (DT),8215 166th Street,Surrey,BC,"V3S 2X6,(604) 575-8671",(604) 575-8671,49.11081,-122.76256
Tim Hortons - 9595 King George Hwy,9595 King George Hwy,Surrey,BC,"V3V 5W4,(604) 582-0909",(604) 582-0909,49.17658,-122.84589
Tim Hortons - Scott Road Centre,"Scott Road Centre,101 - 8080 120 St",Surrey,BC,"V3W 3N3,(604) 599-0589",(604) 599-0589,49.14238,-122.89039
Tim Hortons - 4603 Keith Ave (DT),4603 Keith Ave,Terrace,BC,"V8G 1K2,(250) 635-8128",(250) 635-8128,54.51315,-128.5869
Tim Hortons - 4658 Lakelse Ave,4658 Lakelse Ave,Terrace,BC,"V8G 1R2,(250) 635-2662",(250) 635-2662,54.51668,-128.58928
Tim Hortons - 8100 Hwy 3B (DT),8100 Hwy 3B,Trail,BC,"V1R 4N7,(250) 368-3187",(250) 368-3187,49.0901,-117.63494
Tim Hortons - 1055 West Georgia St,1055 West Georgia St,Vancouver,BC,"V0N 1V0,(604) 687-0348",(604) 687-0348,49.28514,-123.12215
Tim Hortons - 1150 Alberni St,1150 Alberni St,Vancouver,BC,"V6E 1A5,(604) 609-0348",(604) 609-0348,49.28602,-123.12477
Tim Hortons - 1205 Burrard St (DT),1205 Burrard St,Vancouver,BC,"V6Z 1Z5,(604) 331-8769",(604) 331-8769,49.27901,-123.12929
Tim Hortons - 1398 Broadway W,1398 Broadway W,Vancouver,BC,"V6H 1H2,(604) 739-7715",(604) 739-7715,49.26361,-123.136
Tim Hortons - 1595 West Broadway,1595 West Broadway,Vancouver,BC,"V6J 1W6,(604) 737-7714",(604) 737-7714,49.26367,-123.14081
Tim Hortons - 1752 Davie Street,1752 Davie Street,Vancouver,BC,"V6G 1W2,(604) 685-8552",(604) 685-8552,49.28669,-123.14122
Tim Hortons - 1790 4th Ave W,1790 4th Ave W,Vancouver,BC,"V6J 1M1,(604) 730-7889",(604) 730-7889,49.26799,-123.14543
Tim Hortons - 3112 West Broadway,3112 West Broadway,Vancouver,BC,"V6K 2H3,(604) 730-9700",(604) 730-9700,49.26414,-123.17407
Tim Hortons - 3205 Arbutus St,3205 Arbutus St,Vancouver,BC,"V6J 3Z4,(604) 732-6913",(604) 732-6913,49.25725,-123.15294
Tim Hortons - 3463 Dunbar St,3463 Dunbar St,Vancouver,BC,"V6S 2C3,(604) 222-3130",(604) 222-3130,49.25591,-123.18512
Tim Hortons - 3502 Hastings St E,3502 Hastings St E,Vancouver,BC,"V5K 2A7,(604) 299-4288",(604) 299-4288,49.28111,-123.02819
Tim Hortons - 3690 10th Ave W,3690 10th Ave W,Vancouver,BC,"V6R 2G3,(604) 736-5133",(604) 736-5133,49.26348,-123.18571
Tim Hortons - 4401 West 10 Ave.,4401 West 10 Ave.,Vancouver,BC,"V6R 2H8,(604) 221-5011",(604) 221-5011,49.26378,-123.20613
Tim Hortons - 555 Hastings Street West,555 Hastings Street West,Vancouver,BC,"V6B 5K3,(604) 642-0348",(604) 642-0348,49.28437,-123.11238
Tim Hortons - 5702 Granville Street,5702 Granville Street,Vancouver,BC,"V6M 3C7,(604) 266-5331",(604) 266-5331,49.23434,-123.13965
Tim Hortons - 607 Dunsmuir St,607 Dunsmuir St,Vancouver,BC,"V6B 1Y7,(604) 609-0865",(604) 609-0865,49.28301,-123.11543
Tim Hortons - 6525 Oak St,6525 Oak St,Vancouver,BC,"V6P 3Z3,(604) 261-1062",(604) 261-1062,49.22637,-123.12829
Tim Hortons - 678 Dunsmuir Street,678 Dunsmuir Street,Vancouver,BC,"V6B 1N3,(604) 694-0685",(604) 694-0685,49.28349,-123.11615
Tim Hortons - 688 Marine Dr SE,688 Marine Dr SE,Vancouver,BC,"V5X 2T4,(604) 325-5833",(604) 325-5833,49.21096,-123.09127
Tim Hortons - 865 Broadway W,865 Broadway W,Vancouver,BC,"V5Z 1J9,(604) 872-0348",(604) 872-0348,49.26335,-123.12323
Tim Hortons - 947 Hornby Street,947 Hornby Street,Vancouver,BC,"V6Z 1V3,(604) 642-4272",(604) 642-4272,49.2811,-123.12407
Tim Hortons - Children's and Women's Health Centre of B.C.,"Children's and Women's Health Centre of B.C.,4500 Oak St",Vancouver,BC,"V6H 3V4,(604) 875-2539",(604) 875-2539,49.24449,-123.12763
Tim Hortons - Langara College,"Langara College,100 West 49th Ave.",Vancouver,BC,,(604) 323-5295,49.22583,-123.10824
Tim Hortons - On The Run Convenience Store,"On The Run Convenience Store,2001 Kingsway",Vancouver,BC,"V5N 2T2,(604) 877-1958",(604) 877-1958,49.24515,-123.06514
Tim Hortons - On The Run Convenience Store,"On The Run Convenience Store,3312 Grandview Hwy",Vancouver,BC,"V5M 2G4,(604) 433-8822",(604) 433-8822,49.2582,-123.03336
Tim Hortons - Pender Place II,"Pender Place II,104 - 750 Pender St W",Vancouver,BC,"V6C 2T7,(604) 632-0348",(604) 632-0348,49.28497,-123.11526
Tim Hortons - UBC Foodservice-,"UBC Foodservice-,2033 Main Mall",Vancouver,BC,"V6T 1Z2,(604) 822-3256",(604) 822-3256,49.26589,-123.25393
Tim Hortons - University of Britsh Columbia,"University of Britsh Columbia,2424 Main Mall",Vancouver,BC,"V6T 1Z2,(604) 822-1953",(604) 822-1953,49.26042,-123.2492
Tim Hortons - Vancouver  Airport -  Pre Security International Departures,"Vancouver  Airport -  Pre Security International Departures,3211 Grant McConnachie Way",Vancouver,BC,"V7B 1Y7,(604) 231-3731",(604) 231-3731,49.19446,-123.17502
Tim Hortons - Vancouver Airport - Level 2 International Arrivals,"Vancouver Airport - Level 2 International Arrivals,3211 Grant McConachie Way",Vancouver,BC,"V7B 1Y7,(604) 231-3731",(604) 231-3731,49.19446,-123.17502
Tim Hortons - Waterfront Centre,"Waterfront Centre,200 Burrard Street",Vancouver,BC,"V6C 3L6,(604) 692-0348",(604) 692-0348,49.28772,-123.11603
Tim Hortons - 180 First St E (DT),180 First St E,Vanderhoof,BC,"V0J 3A0,(250) 567-5107",(250) 567-5107,54.01344,-124.00511
Tim Hortons - 2501 58 Ave (DT),2501 58 Ave,Vernon,BC,"V1T 9T5,(250) 260-6583",(250) 260-6583,50.28911,-119.25963
Tim Hortons - 2601 Highway 6 (DT),2601 Highway 6,Vernon,BC,"V1T 5G4,(250) 260-7740",(250) 260-7740,50.25692,-119.26386
Tim Hortons - 3905 32 St,3905 32 St,Vernon,BC,"V1T 5P2,(250) 260-3533",(250) 260-3533,50.2702,-119.27378
Tim Hortons - 5205-25th Ave (DT),5205-25th Ave,Vernon,BC,"V1T 1P5,(250) 260-5922",(250) 260-5922,50.26013,-119.26685
Tim Hortons - Vernon Esso,"Vernon Esso,3400 32 St",Vernon,BC,"V1T 5N1,(604) 545-2145",(604) 545-2145,50.26676,-119.2738
Tim Hortons - 1120 McKenzie Ave,1120 McKenzie Ave,Victoria,BC,"V8P 5P5,(250) 727-2234",(250) 727-2234,48.47048,-123.36051
Tim Hortons - 1258 Esquimalt Rd,1258 Esquimalt Rd,Victoria,BC,"V9A 3P3,(250) 361-4629",(250) 361-4629,48.42996,-123.41577
Tim Hortons - 1644 Hillside Ave,1644 Hillside Ave,Victoria,BC,"V8T 2C5,(250) 595-8343",(250) 595-8343,48.44522,-123.33441
Tim Hortons - 3253 Douglas St,3253 Douglas St,Victoria,BC,"V8Z 3K8,(250) 381-8331",(250) 381-8331,48.44881,-123.37308
Tim Hortons - 3501 Ravine Way,3501 Ravine Way,Victoria,BC,"V8X 4Z1,(250) 475-1211",(250) 475-1211,48.45734,-123.3765
Tim Hortons - 3749 Shelbourne Street,3749 Shelbourne Street,Victoria,BC,"V8P 5N4,(250) 380-9666",(250) 380-9666,48.46133,-123.33286
Tim Hortons - 3954 Shelbourne St,3954 Shelbourne St,Victoria,BC,"V8N 3E2,(250) 721-0104",(250) 721-0104,48.46894,-123.33274
Tim Hortons - 3990 Shelbourne St (DT),3990 Shelbourne St,Victoria,BC,"V8N 3E2,(250) 477-9922",(250) 477-9922,48.47219,-123.33268
Tim Hortons - 456A Gorge Rd E,456A Gorge Rd E,Victoria,BC,"V8T 2W4,(250) 380-0137",(250) 380-0137,48.44108,-123.37452
Tim Hortons - 880 Esquimalt Rd,880 Esquimalt Rd,Victoria,BC,"V9A 3M4,(250) 361-4610",(250) 361-4610,48.43104,-123.39962
Tim Hortons - 955 Craigflower Rd,955 Craigflower Rd,Victoria,BC,"V9A 2X8,(250) 384-3685",(250) 384-3685,48.4417,-123.40193
Tim Hortons - One Hospital Way,One Hospital Way,Victoria,BC,"V8Z 6R5,(250) 727-4198",(250) 727-4198,48.46661,-123.43568
Tim Hortons - Royal Jubilee Hospital,"Royal Jubilee Hospital,1952 Bay Street",Victoria,BC,"V8R 1J8,(250) 519-1515",(250) 519-1515,48.43413,-123.33721
Tim Hortons - 200 - 2330 Highway 97 (DT),200 - 2330 Highway 97,Westbank,BC,"V4T 2P3,(250) 707-0080",(250) 707-0080,49.88057,-119.50347
Tim Hortons - 3470 Carrington Rd (DT),3470 Carrington Rd,Westbank,BC,"V4T 3C1,(250) 707-3600",(250) 707-3600,49.83746,-119.61024
Tim Hortons - 15521 Russell Ave,15521 Russell Ave,White Rock,BC,"V4B 2R4,(604) 541-6837",(604) 541-6837,49.02931,-122.79179
Tim Hortons - 2377 152nd  Street,2377 152nd  Street,White Rock,BC,"V4A 4P9,(604) 531-1507",(604) 531-1507,49.04526,-122.80118
Tim Hortons - 1059 Highway 97 S (DT),1059 Highway 97 S,Williams Lake,BC,"V2G 2W3,(250) 392-3818",(250) 392-3818,52.12999,-122.12938
Tim Hortons - 349B Oliver St,349B Oliver St,Williams Lake,BC,"V2G 1M4,(250) 398-7918",(250) 398-7918,52.12864,-122.14105
Tim Hortons - 1250 Gold Star Hwy (DT),1250 Gold Star Hwy,Groton,CT,"6340,(860) 449-6940",(860) 449-6940,41.38281,-72.02744
Tim Hortons - 627 Long Hill Rd (DT),627 Long Hill Rd,Groton,CT,"6340,(860) 445-0055",(860) 445-0055,41.35086,-72.05701
Tim Hortons - 752 E.Main St (DT),752 E.Main St,Meriden,CT,"6450,(203) 237-7584",(203) 237-7584,41.52932,-72.77826
Tim Hortons - 24 E.Main St,24 E.Main St,Mystic/Stonington,CT,"6355,(860) 536-6633",(860) 536-6633,41.8071,-72.735
Tim Hortons - 228 Norwich Westerly Rd (DT),228 Norwich Westerly Rd,North Stonington,CT,"6359,(860) 535-1436",(860) 535-1436,41.43713,-71.87428
Tim Hortons - 563 Providence NW London Turnpike (DT),563 Providence NW London Turnpike,North Stonington,CT,"6359,(860) 599-3112",(860) 599-3112,41.44016,-71.80268
Tim Hortons - 7 Salem Turnpike (DT),7 Salem Turnpike,Norwich,CT,"6360,(860) 887-9767",(860) 887-9767,41.51436,-72.10507
Tim Hortons - 148 S.Broad St (DT),148 S.Broad St,Pawcatuck,CT,"6379,(860) 599-6031",(860) 599-6031,41.3695,-71.85996
Tim Hortons - 25 W.Broad St (DT),25 W.Broad St,Pawcatuck,CT,"6379,(860) 599-2708",(860) 599-2708,41.37784,-71.8317
Tim Hortons - 56 Lathrop Road (DT),56 Lathrop Road,Plainfield,CT,"6374,(860) 230-0650",(860) 230-0650,41.66396,-71.91302
Tim Hortons - 133 East Main Street (DT),133 East Main Street,Plainville,CT,"6062,(860) 793-1122",(860) 793-1122,41.67378,-72.86023
Tim Hortons - 1901 Silas Deane Highway (DT),1901 Silas Deane Highway,Rocky Hill,CT,"6067,(860) 571-0217",(860) 571-0217,41.67515,-72.64841
Tim Hortons - 1302 Hartford Trpk (DT),1302 Hartford Trpk,Vernon,CT,"6066,(860) 870-8399",(860) 870-8399,41.85951,-72.4323
Tim Hortons - 486 Silas Deane Highway (DT),486 Silas Deane Highway,Wethersfield,CT,"6109,(860) 529-6577",(860) 529-6577,41.71284,-72.66368
Tim Hortons - 216 National Road (DT),216 National Road,Richmond,IN,"47374,(765) 935-3787",(765) 935-3787,39.82729,-84.90442
Tim Hortons - 2206 13th St,2206 13th St,Ashland,KY,"41101,(606) 327-8819",(606) 327-8819,38.46616,-82.65821
Tim Hortons - 2524 Winchester Ave (DT),2524 Winchester Ave,Ashland,KY,"41101,(606) 325-3093",(606) 325-3093,38.47286,-82.62805
Tim Hortons - 1023 N.Main St (DT),1023 N.Main St,Fall River,MA,"2721,(508) 675-2938",(508) 675-2938,41.71536,-71.15149
"Tim Hortons - 340 Marino S., Bishop Blvd (DT)",340 Marino S.  Bishop Blvd,Fall River,MA,"2721,(508) 673-9050",(508) 673-9050,41.7014,-71.1556
Tim Hortons - 461 East Washington St,461 East Washington St,North Attleboro,MA,"2760,(508) 699-2796",(508) 699-2796,41.97985,-71.32986
Tim Hortons - 890 South Washington St,890 South Washington St,North Attleboro,MA,"2760,(508) 695-7350",(508) 695-7350,41.95311,-71.34423
Tim Hortons - 572 G A R Hwy (DT),572 G A R Hwy,Swansea,MA,"2777,(508) 676-3966",(508) 676-3966,41.74757,-71.20618
Tim Hortons - 1655 18th St (DT),1655 18th St,Brandon,MB,"R7A 5C6,(204) 571-0457",(204) 571-0457,49.82543,-99.96163
Tim Hortons - 1845 Middleton Ave (DT),1845 Middleton Ave,Brandon,MB,"R7C 1A7,(204) 726-0210",(204) 726-0210,49.88728,-99.96282
Tim Hortons - 2800 Victoria Ave (DT),2800 Victoria Ave,Brandon,MB,"R7B 3X1,(204) 727-6665",(204) 727-6665,49.84215,-99.97733
Tim Hortons - Brandon Regional Hospital,Brandon Regional Hospital,Brandon,MB,"R7A 2B3,(204) 578-4084",(204) 578-4084,49.84045,-99.93691
Tim Hortons - 1565 Main St (DT),1565 Main St,Dauphin,MB,"R7N 3J5,(204) 638-3299",(204) 638-3299,51.13332,-100.06324
Tim Hortons - 805 Thornhill St (DT),805 Thornhill St,Morden,MB,"R6M 1X1,(204) 822-1561",(204) 822-1561,49.19228,-98.10962
Tim Hortons - 550 Saskatchewan Ave W (DT),550 Saskatchewan Ave W,Portage La Prairie,MB,"R1N 0M5,(204) 857-5222",(204) 857-5222,49.97354,-98.29823
Tim Hortons - Portage La Prairie Mall (DT),"Portage La Prairie Mall,2450 Saskatchewan Ave W",Portage La Prairie,MB,"R1N 3N8,(204) 239-1215",(204) 239-1215,49.97121,-98.31948
Tim Hortons - 263 Main St (DT),263 Main St,Selkirk,MB,"R1A 1S3,(204) 482-8809",(204) 482-8809,50.13866,-96.8804
Tim Hortons - 118 Brandt St. (DT),118 Brandt St.,Steinbach,MB,"R5G 1M6,(204) 326-5683",(204) 326-5683,49.52199,-96.69145
Tim Hortons - 141 HWY 12N (DT),141 HWY 12N,Steinbach,MB,"R5G 1T5,(204) 346-0700",(204) 346-0700,49.52552,-96.69149
Tim Hortons - Otineka Mall (DT),"Otineka Mall,Hwy 10 N",The Pas,MB,"R9A 1R2,(204) 623-1480",(204) 623-1480,53.81104,-101.25082
Tim Hortons - 300 Mystery Lake Rd (DT),300 Mystery Lake Rd,Thompson,MB,"R8N 0M2,(204) 677-8467",(204) 677-8467,55.74388,-97.85057
Tim Hortons - 880 Main St N (DT),880 Main St N,Winkler,MB,"R6W 4B5,(204) 331-1525",(204) 331-1525,49.19186,-97.93922
Tim Hortons - 1025 King Edward St (DT),1025 King Edward St,Winnipeg,MB,"R3H 0R1,(204) 633-4584",(204) 633-4584,49.90676,-97.20658
Tim Hortons - 1040 Beaverhill Blvd (DT),1040 Beaverhill Blvd,Winnipeg,MB,"R2J 4B1,(204) 255-8431",(204) 255-8431,49.85478,-97.06531
Tim Hortons - 1059 Pembina Hwy,1059 Pembina Hwy,Winnipeg,MB,"R3T 1Z6,(204) 453-4673",(204) 453-4673,49.84979,-97.15288
Tim Hortons - 1139 Gateway Road (DT),1139 Gateway Road,Winnipeg,MB,"R2G 1B9,(204) 654-1167",(204) 654-1167,49.93088,-97.0687
Tim Hortons - 1146 Portage Ave (DT),1146 Portage Ave,Winnipeg,MB,"R3G 0T1,(204) 775-5203",(204) 775-5203,49.8837,-97.18177
Tim Hortons - 1330 Taylor Ave,1330 Taylor Ave,Winnipeg,MB,"R3M 3Y1,(204) 284-0610",(204) 284-0610,49.85132,-97.17593
Tim Hortons - 1333 Sargent Ave,1333 Sargent Ave,Winnipeg,MB,"R3E 3P8,(204) 783-7127",(204) 783-7127,49.89771,-97.19735
Tim Hortons - 1404 Regent Ave W,1404 Regent Ave W,Winnipeg,MB,"R2C 3A8,(204) 663-4618",(204) 663-4618,49.89525,-97.04251
Tim Hortons - 1490 Inkster Blvd,1490 Inkster Blvd,Winnipeg,MB,"R2X 2T8,(204) 694-6535",(204) 694-6535,49.94405,-97.17608
Tim Hortons - 1510 Pembina Hwy (DT),1510 Pembina Hwy,Winnipeg,MB,"R3T 2E3,(204) 452-3079",(204) 452-3079,49.83414,-97.15014
Tim Hortons - 1555 Regent Ave,1555 Regent Ave,Winnipeg,MB,"R2C 4J2,(204) 667-8116",(204) 667-8116,49.89641,-97.05776
Tim Hortons - 1572 Regent Ave W (DT),1572 Regent Ave W,Winnipeg,MB,"R2C 3B4,(204) 667-1142",(204) 667-1142,49.89654,-97.05929
Tim Hortons - 1590 Notre Dame Ave (DT),1590 Notre Dame Ave,Winnipeg,MB,"R3H 1H6,(204) 779-9585",(204) 779-9585,49.91641,-97.20988
Tim Hortons - 1609A Kenaston Blvd (DT),1609A Kenaston Blvd,Winnipeg,MB,"R3P 2M4,(204) 489-8701",(204) 489-8701,49.82137,-97.20105
Tim Hortons - 1795 Brookside Blvd (DT),1795 Brookside Blvd,Winnipeg,MB,"R3C 2E6,(204) 633-1746",(204) 633-1746,49.9423,-97.22943
Tim Hortons - 1848 Main St,1848 Main St,Winnipeg,MB,"R2V 3H2,(204) 334-6711",(204) 334-6711,49.93906,-97.11592
Tim Hortons - 1877 Portage Ave,1877 Portage Ave,Winnipeg,MB,"R3J 0H3,(204) 831-8141",(204) 831-8141,49.87868,-97.21892
Tim Hortons - 2360 McPhillips St (DT),2360 McPhillips St,Winnipeg,MB,"R2V 4J6,(204) 334-4761",(204) 334-4761,49.95569,-97.14569
Tim Hortons - 240 Graham Ave,240 Graham Ave,Winnipeg,MB,"R3C 0J7,(204) 946-5552",(204) 946-5552,49.89274,-97.14
Tim Hortons - 2405 Pembina Highway (DT),2405 Pembina Highway,Winnipeg,MB,"R3T 2H4,(204) 269-3605",(204) 269-3605,49.80482,-97.15605
Tim Hortons - 2500 Main St. N (DT),2500 Main St. N,Winnipeg,MB,"R2V 4T6,(204) 334-3126",(204) 334-3126,49.95732,-97.09415
Tim Hortons - 255 Maryland St (DT),255 Maryland St,Winnipeg,MB,"R3G 3P9,(204) 774-4976",(204) 774-4976,49.88649,-97.16063
Tim Hortons - 3296 Portage Ave (DT),3296 Portage Ave,Winnipeg,MB,"R3K 0Z1,(204) 895-4772",(204) 895-4772,49.88295,-97.30215
Tim Hortons - 3649 Portage Ave. (DT),3649 Portage Ave.,Winnipeg,MB,"R3K 2G6,(204) 837-8788",(204) 837-8788,49.88218,-97.31244
Tim Hortons - 3890 Grant Ave. (DT),3890 Grant Ave.,Winnipeg,MB,"R3R 3C2,(204) 895-8037",(204) 895-8037,49.85903,-97.26286
Tim Hortons - 570 Pembina Hwy (DT),570 Pembina Hwy,Winnipeg,MB,"R3M 2M5,(204) 452-2531",(204) 452-2531,49.86462,-97.14721
Tim Hortons - 646 Archibald St (DT),646 Archibald St,Winnipeg,MB,"R2J 0Y4,(204) 237-4982",(204) 237-4982,49.88111,-97.09841
Tim Hortons - 7 Oaks General Hospital,"7 Oaks General Hospital,2300 McPhillips St",Winnipeg,MB,"R2V 3M3,(204) 632-3194",(204) 632-3194,49.95369,-97.14745
Tim Hortons - 777 Keewatin St,777 Keewatin St,Winnipeg,MB,"R2X 3B9,(204) 632-7025",(204) 632-7025,49.93528,-97.19501
Tim Hortons - 831 Dakota St,831 Dakota St,Winnipeg,MB,"R2M 5M2,(204) 256-7884",(204) 256-7884,49.83049,-97.10686
Tim Hortons - 835 St Mary's Rd (DT),835 St Mary's Rd,Winnipeg,MB,"R2M 3P5,(204) 253-6628",(204) 253-6628,49.84835,-97.11246
Tim Hortons - 860 Waverly St (DT),860 Waverly St,Winnipeg,MB,"R3T 5Z7,(204) 284-4699",(204) 284-4699,49.84698,-97.17911
Tim Hortons - 980 St James St (DT),980 St James St,Winnipeg,MB,"R3H 0K3,(204) 786-2842",(204) 786-2842,49.89275,-97.20073
"Tim Hortons - Brodie Bldg, University of Manitoba","Brodie Bldg  University of Manitoba,727 McDermot Ave",Winnipeg,MB,"R3P 3P5,(204) 779-1365",(204) 779-1365,49.90332,-97.15997
Tim Hortons - Concordia Hospital,"Concordia Hospital,1095 Concordia Avenue",Winnipeg,MB,"R2K 3S8,(204) 661-7295",(204) 661-7295,49.91221,-97.06404
Tim Hortons - General Hospital,"General Hospital,700 William Ave",Winnipeg,MB,,(204) 787-1226,49.90418,-97.15565
Tim Hortons - Grant Park Shopping Centre,"Grant Park Shopping Centre,1120 Grant Ave",Winnipeg,MB,"R3M 2A6,(204) 452-0829",(204) 452-0829,49.85929,-97.16481
Tim Hortons - MTS Centre,"MTS Centre,300 Portage Ave",Winnipeg,MB,"R3C 0B9,(204) 926-5676",(204) 926-5676,49.89313,-97.14465
Tim Hortons - Portage Place,"Portage Place,159 - 393 Portage Ave",Winnipeg,MB,"R3B 3H6,(204) 943-3625",(204) 943-3625,49.89195,-97.14843
Tim Hortons - Red River College,"Red River College,160 Princess St",Winnipeg,MB,"R3B 1K9,(204) 956-4468",(204) 956-4468,49.90017,-97.14086
Tim Hortons - Red River College,"Red River College,2055 Notre Dame Ave",Winnipeg,MB,"R3H 0J9,(204) 632-3779",(204) 632-3779,49.9165,-97.20794
Tim Hortons - Red River College,"Red River College,2055 Notre Dame Ave",Winnipeg,MB,"R3H 0J9,(204) 632-2005",(204) 632-2005,49.9165,-97.20794
Tim Hortons - Rossmere Shopping Centre (DT),"Rossmere Shopping Centre,1060 Henderson Hwy",Winnipeg,MB,"R2K 2M5,(204) 338-7100",(204) 338-7100,49.9365,-97.09431
Tim Hortons - St. Boniface Hospital,"St. Boniface Hospital,409 Tache Ave",Winnipeg,MB,"R2H 2A6,(204) 258-1260",(204) 258-1260,49.88499,-97.12374
Tim Hortons - St. Vital Centre,"St. Vital Centre,1225 St. Mary's Rd",Winnipeg,MB,"R2M 5E5,(204) 257-4683",(204) 257-4683,49.8475,-97.11255
Tim Hortons - University of Manitoba,University of Manitoba,Winnipeg,MB,"R3T 2N2,(204) 474-9917",(204) 474-9917,49.80996,-97.13249
Tim Hortons - University of Manitoba,University of Manitoba,Winnipeg,MB,"R3T 2N2,(204) 474-8351",(204) 474-8351,49.80996,-97.13249
Tim Hortons - University of Manitoba,"University of Manitoba,17 Dafoe Rd.",Winnipeg,MB,"R3T 2N2,(204) 474-8351",(204) 474-8351,49.80626,-97.13796
Tim Hortons - University of Manitoba,"University of Manitoba,75A Chancellors Circle",Winnipeg,MB,"R3T 5V6,(204) 474-7328",(204) 474-7328,49.80945,-97.13333
Tim Hortons - Winnipeg Airport,"Winnipeg Airport,2000 Wellington Ave",Winnipeg,MB,"R3H 1C1,(204) 954-7343",(204) 954-7343,49.9032,-97.22638
"Tim Hortons - Winnipeg International Airport, Post Security Departures","Winnipeg International Airport  Post Security Departures,2000 Wellington Ave",Winnipeg,MB,"R3H 1C2,(204) 954-7343",(204) 954-7343,49.9032,-97.22638
Tim Hortons - 458 Center Street (DT),458 Center Street,Auburn,ME,"4210,(207) 753-0014",(207) 753-0014,44.11789,-70.22503
Tim Hortons - 848 Minot Avenue (DT),848 Minot Avenue,Auburn,ME,"4210,(207) 753-6773",(207) 753-6773,44.08147,-70.26266
Tim Hortons - 230 Western Ave (DT),230 Western Ave,Augusta,ME,"4330,(207) 629-5150",(207) 629-5150,44.31436,-69.80091
Tim Hortons - 54 Bangor Street (DT),54 Bangor Street,Augusta,ME,"4330,(207) 629-5559",(207) 629-5559,44.32024,-69.76546
Tim Hortons - 594 Broadway (DT),594 Broadway,Bangor,ME,"4401,(207) 262-0171",(207) 262-0171,44.82119,-68.77721
Tim Hortons - 294 Chamberlain St (DT),294 Chamberlain St,Brewer,ME,"4412,(207) 989-6319",(207) 989-6319,44.78505,-68.75024
Tim Hortons - 147 Pleasant Street (DT),147 Pleasant Street,Brunswick,ME,"4011,(207) 373-0766",(207) 373-0766,43.91245,-69.98509
Tim Hortons - 109 Bennett Dr. (DT),109 Bennett Dr.,Caribou,ME,"4736,(207) 492-0363",(207) 492-0363,46.86436,-68.00485
Tim Hortons - 290 North St. (DT),290 North St.,Houlton,ME,"4730,(207) 521-0100",(207) 521-0100,46.14515,-67.84041
Tim Hortons - 736 Sabattus Street (DT),736 Sabattus Street,Lewiston,ME,"4240,(207) 753-0176",(207) 753-0176,44.103,-70.17722
Tim Hortons - 855 Lisbon (DT),855 Lisbon,Lewiston,ME,"4240,(207) 795-1364",(207) 795-1364,44.08247,-70.19937
Tim Hortons - 4 Lunt Road (DT),4 Lunt Road,Newport,ME,"4953,(207) 368-5409",(207) 368-5409,44.83837,-69.28371
Tim Hortons - 60 Fair Street (DT),60 Fair Street,Norway,ME,"4268,(207) 743-1957",(207) 743-1957,44.2108,-70.52962
Tim Hortons - 975 Stillwater Avenue (DT),975 Stillwater Avenue,Old Town,ME,"4468,(207) 827-6646",(207) 827-6646,44.91589,-68.6828
Tim Hortons - 779 N.Main St. (DT),779 N.Main St.,Presque Isle,ME,"4769,(207) 760-9158",(207) 760-9158,46.69986,-68.01047
Tim Hortons - Aroostook Centre Mall,"Aroostook Centre Mall,830 Main St",Presque Isle,ME,"4769,(207) 760-8198",(207) 760-8198,46.70123,-68.00974
Tim Hortons - 168 Camden Street (DT),168 Camden Street,Rockland,ME,"4841,(207) 596-6387",(207) 596-6387,44.12149,-69.10071
Tim Hortons - 398 US Route 1 (DT),398 US Route 1,Scarborough,ME,"4074,(207) 885-1330",(207) 885-1330,43.5868,-70.3523
Tim Hortons - 245 Madison Avenue (DT),245 Madison Avenue,Skowhegan,ME,"4976,(207) 858-0254",(207) 858-0254,44.77687,-69.72476
Tim Hortons - 291 Maine Mall (DT),291 Maine Mall,South Portland,ME,"4106,(207) 774-1555",(207) 774-1555,43.63455,-70.33738
Tim Hortons - 50 Market St (DT),50 Market St,South Portland,ME,"4106,(207) 799-3583",(207) 799-3583,43.63586,-70.25412
Tim Hortons - 5 Horton Place (DT),5 Horton Place,Topsham,ME,"4086,(207) 729-1262",(207) 729-1262,43.9275,-69.9764
Tim Hortons - 333 Main Street (DT),333 Main Street,Waterville,ME,"4901,(207) 877-7757",(207) 877-7757,44.5662,-69.63749
Tim Hortons - 150 Main St (DT),150 Main St,Westbrook,ME,"4092,(207) 854-2260",(207) 854-2260,43.67809,-70.33576
Tim Hortons - 2 Amato Dr (DT),2 Amato Dr,Windham,ME,"4062,(207) 892-7200",(207) 892-7200,43.8065,-70.415
Tim Hortons - 727 S.Main St (DT),727 S.Main St,Adrian,MI,"49221,(517) 265-8285",(517) 265-8285,41.88899,-84.04344
Tim Hortons - 3100 Boardwalk,3100 Boardwalk,Ann Arbor,MI,"48108,(734) 332-7945",(734) 332-7945,42.24229,-83.7347
Tim Hortons - 1292 N Opdyke Rd (DT),1292 N Opdyke Rd,Auburn Hills,MI,"48326,(248) 373-4076",(248) 373-4076,42.65861,-83.24573
Tim Hortons - 3460 Wilder Rd (DT),3460 Wilder Rd,Bay City,MI,"48706,(989) 686-7219",(989) 686-7219,43.62382,-83.91552
Tim Hortons - 2141 Rawsonville Rd (DT),2141 Rawsonville Rd,Belleville,MI,"48111,(734) 485-5283",(734) 485-5283,42.21528,-83.54413
Tim Hortons - 6495 Telegraph Road (DT),6495 Telegraph Road,Bloomfield Twp.,MI,"48301,(248) 593-9381",(248) 593-9381,42.54489,-83.28483
Tim Hortons - 1230 E Bristol Rd (DT),1230 E Bristol Rd,Burton,MI,"48529,(810) 760-9770",(810) 760-9770,42.9742,-83.68449
Tim Hortons - 4025 E Court St (DT),4025 E Court St,Burton,MI,"48532,(810) 742-3722",(810) 742-3722,43.0187,-83.63249
Tim Hortons - 41276 Ford Rd (DT),41276 Ford Rd,Canton,MI,"48187,(734) 981-5236",(734) 981-5236,42.32298,-83.44801
Tim Hortons - 45135 Ford Rd (DT),45135 Ford Rd,Canton Township,MI,"48188,(734) 981-6914",(734) 981-6914,42.322,-83.48531
Tim Hortons - 45515 Michigan Ave (DT),45515 Michigan Ave,Canton Twp.,MI,"48188,(734) 484-0261",(734) 484-0261,42.27167,-83.4874
Tim Hortons - 33651 23 Mile Rd (DT),33651 23 Mile Rd,Chesterfield,MI,"48047,(586) 725-1540",(586) 725-1540,42.67566,-82.77001
Tim Hortons - 51595 Gratiot Avenue (DT),51595 Gratiot Avenue,Chesterfield,MI,"48051,(586) 949-0970",(586) 949-0970,42.67934,-82.82949
Tim Hortons - 5700 Maybee Road (DT),5700 Maybee Road,Clarkston,MI,"48347,(248) 922-3195",(248) 922-3195,42.71915,-83.37814
Tim Hortons - 1230 W. 14 Mile Road (DT),1230 W. 14 Mile Road,Clawson,MI,"48017,(248) 435-0411",(248) 435-0411,42.53324,-83.16259
Tim Hortons - 1085 S.Gratiot Ave (DT),1085 S.Gratiot Ave,Clinton Township,MI,"48036,(586) 469-0362",(586) 469-0362,42.57835,-82.8872
Tim Hortons - 34325 Groesbeck (DT),34325 Groesbeck,Clinton Township,MI,"48035,(586) 790-0501",(586) 790-0501,42.5491,-82.9276
Tim Hortons - 39847 South Groesbeck Highway (DT),39847 South Groesbeck Highway,Clinton Township,MI,"48036,(586) 468-3314",(586) 468-3314,42.59075,-82.90157
Tim Hortons - 4140 W. Vienna Road (DT),4140 W. Vienna Road,Clio,MI,"48420,(810) 686-0115",(810) 686-0115,43.17748,-83.75938
Tim Hortons - 1058 State St (DT),1058 State St,Davison,MI,"48423,(810) 654-0390",(810) 654-0390,43.01819,-83.5176
Tim Hortons - 23780 Michigan Ave (DT),23780 Michigan Ave,Dearborn,MI,"48124,(313) 724-8793",(313) 724-8793,42.30072,-83.26835
Tim Hortons - 3550 Greenfield (DT),3550 Greenfield,Dearborn,MI,"48126,(313) 240-9394",(313) 240-9394,42.30782,-83.18868
Tim Hortons - 12962 S. US 27 (DT),12962 S. US 27,Dewitt,MI,"48820,(517) 669-4800",(517) 669-4800,42.82817,-84.5429
Tim Hortons - 772 W.Bay St. (DT),772 W.Bay St.,E.Tawas,MI,"48730,(989) 305-6064",(989) 305-6064,44.27719,-83.4997
Tim Hortons - 2906 Center Avenue (DT),2906 Center Avenue,Essexville,MI,"48732,(989) 893-2305",(989) 893-2305,43.59481,-83.84715
Tim Hortons - 33340 W 12 Mile Rd (DT),33340 W 12 Mile Rd,Farmington Hills,MI,"48334,(248) 489-3192",(248) 489-3192,42.49867,-83.37813
Tim Hortons - 3238 Owen Road (DT),3238 Owen Road,Fenton,MI,"48430,(810) 629-3921",(810) 629-3921,42.78977,-83.73475
Tim Hortons - 326 W Silver Lake Rd (DT),326 W Silver Lake Rd,Fenton,MI,"48430,(810) 714-3092",(810) 714-3092,42.79794,-83.70746
Tim Hortons - 22230 Woodward Ave (DT),22230 Woodward Ave,Ferndale,MI,"48220,(248) 546-2573",(248) 546-2573,42.45606,-83.13125
Tim Hortons - 1274 N.Ballenger Hwy (DT),1274 N.Ballenger Hwy,Flint,MI,"48504,(810) 424-5970",(810) 424-5970,43.02717,-83.73022
Tim Hortons - 1490 S Linden Rd (DT),1490 S Linden Rd,Flint,MI,"48532,(810) 720-5493",(810) 720-5493,43.0041,-83.77272
Tim Hortons - 4365 Pierson Road (DT),4365 Pierson Road,Flint,MI,"48504,(810) 230-3290",(810) 230-3290,43.06059,-83.76643
Tim Hortons - 6008 Fenton Rd. (DT),6008 Fenton Rd.,Flint,MI,"48507,(810) 234-8961",(810) 234-8961,42.94399,-83.69209
Tim Hortons - 142 N. Main Street (DT),142 N. Main Street,Frankenmuth,MI,"48734,(989) 652-2749",(989) 652-2749,43.33626,-83.73816
Tim Hortons - 15728  15 Mile Road (DT),15728  15 Mile Road,Fraser,MI,"48026,(586) 294-0332",(586) 294-0332,42.55327,-82.9637
Tim Hortons - 30121 Ford Rd (DT),30121 Ford Rd,Garden City,MI,"48135,(734) 762-9108",(734) 762-9108,42.32543,-83.338
Tim Hortons - 11334 S. Saginaw Street (DT),11334 S. Saginaw Street,Grand Blanc,MI,"48439,(810) 603-0629",(810) 603-0629,42.92951,-83.63241
Tim Hortons - 19353 Vernier (DT),19353 Vernier,Harper Woods,MI,"48225,(313) 881-7866",(313) 881-7866,42.44919,-82.9297
Tim Hortons - 2350 Cedar St. (DT),2350 Cedar St.,Holt,MI,"48842,(517) 694-0129",(517) 694-0129,42.64953,-84.52658
Tim Hortons - 1952 S Cedar St (DT),1952 S Cedar St,Imlay City,MI,"48444,(810) 724-2123",(810) 724-2123,43.00809,-83.07153
Tim Hortons - 1004 West Parnell Street (DT),1004 West Parnell Street,Jackson,MI,"49201,(517) 768-5868",(517) 768-5868,42.29108,-84.41371
Tim Hortons - 1715 W.Michigan Ave (DT),1715 W.Michigan Ave,Jackson,MI,"49201,(517) 795-1648",(517) 795-1648,42.2474,-84.4349
Tim Hortons - 740 Lapeer Rd (DT),740 Lapeer Rd,Lake Orion,MI,"48362,(248) 693-8954",(248) 693-8954,42.79196,-83.24599
Tim Hortons - 3309 Sterns Road (DT),3309 Sterns Road,Lambertville,MI,"48144,(734) 856-1679",(734) 856-1679,41.7491,-83.62579
Tim Hortons - 2540 East Jolly Rd (DT),2540 East Jolly Rd,Lansing,MI,"48911,(517) 882-6311",(517) 882-6311,42.6829,-84.51582
Tim Hortons - 3500 Martin Luther King Jr. Blvd (DT),3500 Martin Luther King Jr. Blvd,Lansing,MI,"48910,(517) 268-8992",(517) 268-8992,42.69667,-84.5674
Tim Hortons - 5645 S. Cedar Street (DT),5645 S. Cedar Street,Lansing,MI,"48911,(517) 882-3536",(517) 882-3536,42.6757,-84.54743
Tim Hortons - 728 S.Waverly Rd (DT),728 S.Waverly Rd,Lansing,MI,"48917,(517) 703-8131",(517) 703-8131,42.72646,-84.60304
Tim Hortons - 624 S Main St (DT),624 S Main St,Lapeer,MI,"48446,(810) 667-1486",(810) 667-1486,43.04423,-83.31978
Tim Hortons - 36255 26 Mile Road (DT),36255 26 Mile Road,Lenox,MI,"48050,(586) 716-9240",(586) 716-9240,42.72046,-82.74506
Tim Hortons - 1360 Southfield Rd (DT),1360 Southfield Rd,Lincoln Park,MI,"48146,(313) 383-7824",(313) 383-7824,42.25095,-83.17897
Tim Hortons - 1727 Southfield Road (DT),1727 Southfield Road,Lincoln Park,MI,"48146,313-928-0138",313-928-0138,42.25337,-83.1881
Tim Hortons - 27430 Schoolcraft Rd (DT),27430 Schoolcraft Rd,Livonia,MI,"48154,(734) 422-1506",(734) 422-1506,42.3844,-83.3148
Tim Hortons - 33111 8 Mile Rd. (DT),33111 8 Mile Rd.,Livonia,MI,"48152,(248) 477-4675",(248) 477-4675,42.44065,-83.37271
Tim Hortons - 33500 Plymouth Rd (DT),33500 Plymouth Rd,Livonia,MI,"48152,(734) 427-0653",(734) 427-0653,42.36819,-83.37319
Tim Hortons - 22929 Hall Rd (DT),22929 Hall Rd,Macomb,MI,"48042,(586) 948-1945",(586) 948-1945,42.63001,-82.87838
Tim Hortons - 493 W. 12 Mile Road (DT),493 W. 12 Mile Road,Madison Heights,MI,"48071,(248) 548-1688",(248) 548-1688,42.50461,-83.11106
Tim Hortons - 1551 Gratiot Blvd (DT),1551 Gratiot Blvd,Marysville,MI,"48040,(810) 388-0029",(810) 388-0029,42.91959,-82.47776
Tim Hortons - 2003 Saginaw St (DT),2003 Saginaw St,Midland,MI,"48640,(989) 832-9955",(989) 832-9955,43.6413,-84.25064
Tim Hortons - 177 S.Milford Rd (DT),177 S.Milford Rd,Milford,MI,"48381,(248) 684-7632",(248) 684-7632,42.58248,-83.61075
Tim Hortons - 1255 North Dixie Highway,1255 North Dixie Highway,Monroe,MI,"48162,(734) 384-7952",(734) 384-7952,41.92586,-83.36341
Tim Hortons - 1448 N.Telegraph Rd (DT),1448 N.Telegraph Rd,Monroe,MI,"48162,(734) 457-2181",(734) 457-2181,41.9415,-83.40477
Tim Hortons - 404 S Monroe St (DT),404 S Monroe St,Monroe,MI,"48161,(734) 384-9523",(734) 384-9523,41.91308,-83.40046
Tim Hortons - 1004 E. Pickard (DT),1004 E. Pickard,Mount Pleasant,MI,"48858,(989) 779-0920",(989) 779-0920,43.6118,-84.7653
Tim Hortons - 17899 Haggerty Rd (DT),17899 Haggerty Rd,Northville,MI,"48167,(248) 449-9727",(248) 449-9727,42.4148,-83.4326
Tim Hortons - 22211 Coolidge Rd (DT),22211 Coolidge Rd,Oak Park,MI,"48237,(248) 399-1367",(248) 399-1367,42.4593,-83.182
Tim Hortons - 323 W Main St (DT),323 W Main St,Owosso,MI,"48867,(989) 723-7384",(989) 723-7384,42.99755,-84.17352
Tim Hortons - 590 N.Lapeer Rd (DT),590 N.Lapeer Rd,Oxford,MI,"48371,(248) 572-4069",(248) 572-4069,42.8352,-83.27141
Tim Hortons - 150 Plymouth Rd (DT),150 Plymouth Rd,Plymouth,MI,"48170,(734) 414-5818",(734) 414-5818,42.37661,-83.45999
Tim Hortons - 1600 S.Opdyke St (DT),1600 S.Opdyke St,Pontiac,MI,"48341,(248) 332-1730",(248) 332-1730,42.6172,-83.2485
Tim Hortons - 617 E Walton Blvd (DT),617 E Walton Blvd,Pontiac,MI,"48342,(248) 276-7588",(248) 276-7588,42.67753,-83.27843
Tim Hortons - 2626 Pine Grove (DT),2626 Pine Grove,Port Huron,MI,"48060,(810) 987-6734",(810) 987-6734,43.00149,-82.43895
Tim Hortons - 3829 Pine Grove Avenue (DT),3829 Pine Grove Avenue,Port Huron,MI,"48060,(810) 982-4047",(810) 982-4047,43.02121,-82.45553
Tim Hortons - 24225 5 Mile Rd (DT),24225 5 Mile Rd,Redford,MI,"48239,(313) 255-8800",(313) 255-8800,42.40003,-83.27812
Tim Hortons - 67467 Main Street (DT),67467 Main Street,Richmond,MI,"48062,(586) 727-2404",(586) 727-2404,42.79826,-82.73946
Tim Hortons - 7070 Middlebelt Rd (DT),7070 Middlebelt Rd,Romulus,MI,"48174,(734) 467-4913",(734) 467-4913,42.25356,-83.32845
Tim Hortons - 25511 Gratiot St (DT),25511 Gratiot St,Roseville,MI,"48066,(586) 498-9270",(586) 498-9270,42.48339,-82.94595
Tim Hortons - 30721 Gratiot Ave (DT),30721 Gratiot Ave,Roseville,MI,"48066,(586) 285-0273",(586) 285-0273,42.52263,-82.9204
Tim Hortons - 2214 E 11 Mile Rd (DT),2214 E 11 Mile Rd,Royal Oak,MI,"48067,(248) 548-3391",(248) 548-3391,42.49051,-83.1188
Tim Hortons - 2039 N Michigan Ave (DT),2039 N Michigan Ave,Saginaw,MI,"48602,(989) 753-0273",(989) 753-0273,43.43579,-83.94885
Tim Hortons - 4870 State St (DT),4870 State St,Saginaw,MI,"48602,(989) 793-5288",(989) 793-5288,43.4368,-84.01198
Tim Hortons - 8099 Gratiot Ave (DT),8099 Gratiot Ave,Saginaw,MI,"48609,(989) 781-5241",(989) 781-5241,43.416,-84.07324
Tim Hortons - 524 E Michigan Ave (DT),524 E Michigan Ave,Saline,MI,"48176,(734) 429-0761",(734) 429-0761,42.1714,-83.77089
Tim Hortons - 25203 Evergreen Rd (DT),25203 Evergreen Rd,Southfield,MI,"48076,(248) 355-2116",(248) 355-2116,42.47473,-83.2406
Tim Hortons - 25311 Telegraph Rd (DT),25311 Telegraph Rd,Southfield,MI,"48034,(248) 350-1896",(248) 350-1896,42.4746,-83.28359
Tim Hortons - 29069 Greenfield Rd (DT),29069 Greenfield Rd,Southfield,MI,"48076,(248) 552-0016",(248) 552-0016,42.50334,-83.20313
Tim Hortons - 13843 Northline Ave (DT),13843 Northline Ave,Southgate,MI,"48195,(734) 324-4734",(734) 324-4734,42.2137,-83.19326
Tim Hortons - 16100 Northline Road (DT),16100 Northline Road,Southgate,MI,"48195,(734) 284-5633",(734) 284-5633,42.21348,-83.21953
Tim Hortons - 16801 Fort St (DT),16801 Fort St,Southgate,MI,"48195,(734) 246-8345",(734) 246-8345,42.18584,-83.18901
Tim Hortons - 23825 Harper Ave (DT),23825 Harper Ave,St. Clair Shores,MI,"48080,(586) 776-2124",(586) 776-2124,42.4707,-82.90576
Tim Hortons - 34918 Van Dyke (DT),34918 Van Dyke,Sterling Heights,MI,"48312,(586) 979-0498",(586) 979-0498,42.55069,-83.02872
Tim Hortons - 37121 Mound Road (DT),37121 Mound Road,Sterling Heights,MI,"48310,(586) 268-3366",(586) 268-3366,42.56629,-83.04948
Tim Hortons - 42875 Hayes (DT),42875 Hayes,Sterling Heights,MI,"48313,(586) 566-3340",(586) 566-3340,42.61065,-82.9727
Tim Hortons - 2451 Orchard Lake Road,2451 Orchard Lake Road,Sylvan Lake,MI,"48320,(248) 683-9800",(248) 683-9800,42.60984,-83.33293
Tim Hortons - 11130 Allen Rd (DT),11130 Allen Rd,Taylor,MI,"48180,(734) 287-2234",(734) 287-2234,42.22595,-83.22976
Tim Hortons - 21399 Van Born Rd (DT),21399 Van Born Rd,Taylor,MI,"48180,(313) 792-1722",(313) 792-1722,42.26957,-83.24633
Tim Hortons - 27340 Eureka Rd. (DT),27340 Eureka Rd.,Taylor,MI,"48180,(734) 942-7031",(734) 942-7031,42.19602,-83.30606
Tim Hortons - 1816 West Rd (DT),1816 West Rd,Trenton,MI,"48183,(734) 671-4205",(734) 671-4205,42.1413,-83.19055
Tim Hortons - 47050 Van Dyke (DT),47050 Van Dyke,Utica,MI,"48317,(586) 997-0529",(586) 997-0529,42.64098,-83.03291
Tim Hortons - 10360 Belleville Road (DT),10360 Belleville Road,Van Buren Township,MI,"48111,(734) 699-5278",(734) 699-5278,42.22751,-83.48509
Tim Hortons - 1006 E W Maple Rd (DT),1006 E W Maple Rd,Walled Lake,MI,"48390,(248) 668-0044",(248) 668-0044,42.53797,-83.47915
Tim Hortons - 20700 Mound Rd (DT),20700 Mound Rd,Warren,MI,"48091,(586) 757-2322",(586) 757-2322,42.44844,-83.04399
Tim Hortons - 26807 Hoover Rd (DT),26807 Hoover Rd,Warren,MI,"48089,(586) 757-2251",(586) 757-2251,42.49087,-83.00653
Tim Hortons - 29030 Van Dyke (DT),29030 Van Dyke,Warren,MI,"48093,(586) 573-7270",(586) 573-7270,42.50684,-83.0283
Tim Hortons - 13240 32 Mile Rd. (DT),13240 32 Mile Rd.,Washington,MI,"40865,(586) 336-6809",(586) 336-6809,42.8028,-83.00324
Tim Hortons - 180 N Cass Lake Rd (DT),180 N Cass Lake Rd,Waterford,MI,"48328,(248) 738-2650",(248) 738-2650,42.64143,-83.35559
Tim Hortons - 4837 Dixie Hwy (DT),4837 Dixie Hwy,Waterford,MI,"48329,(248) 618-9369",(248) 618-9369,42.69066,-83.38664
Tim Hortons - 715 South Wayne Rd (DT),715 South Wayne Rd,Westland,MI,"48186,(734) 595-0452",(734) 595-0452,42.30442,-83.38846
Tim Hortons - 9199 Highland Road (DT),9199 Highland Road,White Lake Twp.,MI,"48383,(248) 698-3310",(248) 698-3310,42.6568,-83.4682
Tim Hortons - 21930 Allen Rd (DT),21930 Allen Rd,Woodhaven,MI,"48183,(734) 692-1052",(734) 692-1052,42.14849,-83.22645
Tim Hortons - 22051 West Rd. (DT),22051 West Rd.,Woodhaven,MI,"48183,(734) 692-7745",(734) 692-7745,42.1384,-83.247
Tim Hortons - 760 S.Hewitt Rd (DT),760 S.Hewitt Rd,Ypsilanti,MI,"48197,(734) 480-2450",(734) 480-2450,42.22941,-83.64365
Tim Hortons - 2 Jagoe St (DT),2 Jagoe St,Atholville,NB,"E3N 5C3,(506) 753-1881",(506) 753-1881,47.99092,-66.71729
Tim Hortons - 100 Harbourview Blvd (DT),100 Harbourview Blvd,Bathurst,NB,"E2A 5B9,(506) 545-9104",(506) 545-9104,47.62153,-65.65789
Tim Hortons - 1420 Vanier Blvd.,1420 Vanier Blvd.,Bathurst,NB,"E2A 7B7,(506) 546-8093",(506) 546-8093,47.63836,-65.7053
Tim Hortons - 390 Main St (DT),390 Main St,Bathurst,NB,"E2A 1B2,(506) 548-8310",(506) 548-8310,47.61938,-65.64668
Tim Hortons - 575 Bridge St (DT),575 Bridge St,Bathurst,NB,"E2A 1W7,(506) 546-3040",(506) 546-3040,47.6126,-65.6352
Tim Hortons - 577 St. Peter Ave (DT),577 St. Peter Ave,Bathurst,NB,"E2A 2Y5,(506) 546-4588",(506) 546-4588,47.63021,-65.66674
Tim Hortons - Bathurst Shopping Mall,"Bathurst Shopping Mall,1300 St. Peter Ave",Bathurst,NB,"E2A 3A6,(506) 545-7072",(506) 545-7072,47.63979,-65.68093
Tim Hortons - 794 Principale St (DT),794 Principale St,Beresford,NB,"E8K 2G1,(506) 542-1397",(506) 542-1397,47.70533,-65.70473
Tim Hortons - 165 Irving Blvd (DT),165 Irving Blvd,Bouctouche,NB,"E4S 3K3,(506) 743-9199",(506) 743-9199,46.46445,-64.73352
Tim Hortons - 8826 Main Street (DT),8826 Main Street,Bristol,NB,"E7L 2A1,(506) 392-9009",(506) 392-9009,46.44145,-67.61929
Tim Hortons - 75 Roseberry St (DT),75 Roseberry St,Campbellton,NB,"E3N 2G6,(506) 789-9148",(506) 789-9148,48.0044,-66.67799
Tim Hortons - Campbellton City Centre,"Campbellton City Centre,157 Water St",Campbellton,NB,"E3N 3L4,(506) 753-3401",(506) 753-3401,48.00661,-66.67558
Tim Hortons - 2414 Acadie Rd (DT),2414 Acadie Rd,Cap-Pele,NB,"E0A 1J0,(506) 577-4919",(506) 577-4919,46.21747,-64.30085
Tim Hortons - 22 St-Pierre Blvd W (DT),22 St-Pierre Blvd W,Caraquet,NB,"E1W 1B6,(506) 727-9000",(506) 727-9000,47.79207,-64.94635
Tim Hortons - 412 William St (DT),412 William St,Dalhousie,NB,"E8C 2X2,(506) 684-5569",(506) 684-5569,48.06654,-66.37566
Tim Hortons - 280 Amirault St (DT),280 Amirault St,Dieppe,NB,"E1A 1G2,(506) 862-7661",(506) 862-7661,46.0863,-64.73437
Tim Hortons - 429 Rue. Adelard-Savoie (DT),429 Rue. Adelard-Savoie,Dieppe,NB,"E1A 7G9,(506) 857-2378",(506) 857-2378,46.10744,-64.7064
Tim Hortons - 473 Paul St (DT),473 Paul St,Dieppe,NB,"E1A 5R4,(506) 862-7630",(506) 862-7630,46.0993,-64.76128
Tim Hortons - 580 Champlain St (DT),580 Champlain St,Dieppe,NB,"E1A 1P4,(506) 862-7641",(506) 862-7641,46.09921,-64.72988
Tim Hortons - Champlain Place,"Champlain Place,477 Paul St",Dieppe,NB,"E1A 4X5,(506) 862-7637",(506) 862-7637,46.0993,-64.76128
Tim Hortons - 330 Main St (DT),330 Main St,Doaktown,NB,"E9C 1A9,(506) 365-9082",(506) 365-9082,46.55457,-66.1339
Tim Hortons - 155 Victoria St (DT),155 Victoria St,Edmundston,NB,"E3V 2H7,(506) 735-6665",(506) 735-6665,47.36772,-68.32214
Tim Hortons - 684 Victoria Street (DT),684 Victoria Street,Edmundston,NB,"E3V 3S9,(506) 739-6456",(506) 739-6456,47.38843,-68.3407
Tim Hortons - 1050 Douglas Ave (DT),1050 Douglas Ave,Fredericton,NB,"E3A 9N2,(506) 462-9422",(506) 462-9422,45.98867,-66.6517
Tim Hortons - 1160 Hanwell Rd (DT),1160 Hanwell Rd,Fredericton,NB,"E3C 1A4,(506) 462-9951",(506) 462-9951,45.94772,-66.69263
Tim Hortons - 1189 Prospect St (DT),1189 Prospect St,Fredericton,NB,"E3B 3B9,(506) 462-9953",(506) 462-9953,45.93926,-66.66114
Tim Hortons - 1713 Woodstock Rd (DT),1713 Woodstock Rd,Fredericton,NB,"E3C 1L4,(506) 462-9956",(506) 462-9956,45.9673,-66.72245
Tim Hortons - 247 Canada St (DT),247 Canada St,Fredericton,NB,"E3A 4A1,(506) 462-9429",(506) 462-9429,45.97856,-66.59271
Tim Hortons - 290 Main St (DT),290 Main St,Fredericton,NB,"E3A 1C9,(506) 462-9955",(506) 462-9955,45.97553,-66.64655
Tim Hortons - 375 Smythe St (DT),375 Smythe St,Fredericton,NB,"E3B 3E3,(506) 462-9952",(506) 462-9952,45.96051,-66.65464
Tim Hortons - 534 Union St (DT),534 Union St,Fredericton,NB,"E3A 3N2,(506) 462-9958",(506) 462-9958,45.97004,-66.63304
Tim Hortons - 564 St-Thomas University,564 St-Thomas University,Fredericton,NB,"E3B 5G3,(506) 452-0604",(506) 452-0604,45.94905,-66.63953
Tim Hortons - 612 King St (DT),612 King St,Fredericton,NB,"E3B 1G1,(506) 462-9954",(506) 462-9954,45.95975,-66.63856
Tim Hortons - University of New Brunswick-Fredericton Campus,"University of New Brunswick-Fredericton Campus,21 Pacey Dr",Fredericton,NB,"E3B 5A3,(506) 474-8031",(506) 474-8031,45.94439,-66.64112
Tim Hortons - 199 Main St (DT),199 Main St,Grand Falls,NB,"E3Z 2W1,(506) 473-1473",(506) 473-1473,47.04611,-67.74582
Tim Hortons - 452 Madawaska Rd (DT),452 Madawaska Rd,Grand Falls,NB,"E3Y 1A3,(506) 473-1225",(506) 473-1225,47.05583,-67.74779
Tim Hortons - 470 Main St (DT),470 Main St,Hampton,NB,"E5N 6C1,(506) 832-2007",(506) 832-2007,45.52042,-65.83272
Tim Hortons - 542 Main St (DT),542 Main St,Hartland,NB,"E7P 2N5,(506) 375-6658",(506) 375-6658,46.30529,-67.53045
Tim Hortons - 4 Union St (DT),4 Union St,Minto,NB,"E4B 2N4,(506) 327-3514",(506) 327-3514,46.07028,-66.06085
Tim Hortons - 120 Newcastle Blvd,120 Newcastle Blvd,Miramichi,NB,"E1V 2L7,(506) 622-5172",(506) 622-5172,47.00155,-65.56488
Tim Hortons - 1780 Water St,1780 Water St,Miramichi,NB,"E1V 3G5,(506) 773-9351",(506) 773-9351,47.00219,-65.54627
Tim Hortons - 188 King St (DT),188 King St,Miramichi,NB,"E1N 6M5,(902) 773-9678",(902) 773-9678,47.02426,-65.45205
Tim Hortons - 2525 King George Hwy (DT),2525 King George Hwy,Miramichi,NB,"E1V 6W3,(506) 773-9136",(506) 773-9136,47.03125,-65.48863
Tim Hortons - 467 King George Hwy (DT),467 King George Hwy,Miramichi,NB,"E1V 1M3,(506) 622-1555",(506) 622-1555,46.99956,-65.56946
Tim Hortons - 10 Horton Lane (DT),10 Horton Lane,Moncton,NB,"E1C 9V7,(506) 862-7645",(506) 862-7645,46.08836,-64.77826
Tim Hortons - 10 Plaza Blvd. (DT),10 Plaza Blvd.,Moncton,NB,"E1C 0G4,(506) 389-7366",(506) 389-7366,46.11389,-64.82619
Tim Hortons - 1166 Mountain Rd (DT),1166 Mountain Rd,Moncton,NB,"E1C 2T5,(506) 862-7631",(506) 862-7631,46.10667,-64.82375
Tim Hortons - 1410 Elmwood Dr,1410 Elmwood Dr,Moncton,NB,"E1H 2H4,(506) 389-7362",(506) 389-7362,46.15028,-64.77699
Tim Hortons - 1810 Mountain Rd (DT),1810 Mountain Rd,Moncton,NB,"E1G 1A9,(506) 862-7651",(506) 862-7651,46.12162,-64.84762
Tim Hortons - 1840 Main St (DT),1840 Main St,Moncton,NB,"E1E 4S7,(506) 862-7658",(506) 862-7658,46.07634,-64.80134
Tim Hortons - 2 Park Lane (DT),2 Park Lane,Moncton,NB,"E0A 3G0,(506) 862-7644",(506) 862-7644,46.09277,-64.78154
Tim Hortons - 2731 Mountain Rd (DT),2731 Mountain Rd,Moncton,NB,"E1G 2W5,(506) 389-7377",(506) 389-7377,46.13311,-64.88584
Tim Hortons - 327 Elmwood Dr (DT),327 Elmwood Dr,Moncton,NB,"E1A 1X6,(506) 862-7635",(506) 862-7635,46.11407,-64.77355
Tim Hortons - 7 St. George St (DT),7 St. George St,Moncton,NB,"E1C 1S8,(506) 862-7638",(506) 862-7638,46.0934,-64.77221
Tim Hortons - 750 St. George Blvd (DT),750 St. George Blvd,Moncton,NB,"E1E 2C6,(506) 862-7636",(506) 862-7636,46.08508,-64.81089
Tim Hortons - 85 Harrisville Blvd (DT),85 Harrisville Blvd,Moncton,NB,"E1H 3N4,(506) 862-7689",(506) 862-7689,46.1323,-64.72981
Tim Hortons - City of Moncton,"City of Moncton,655 Main St",Moncton,NB,"E1C 1E8,(506) 862-7653",(506) 862-7653,46.08903,-64.77526
Tim Hortons - Highfield Square,"Highfield Square,1100 Main St",Moncton,NB,"E1C 1H4,(506) 862-7643",(506) 862-7643,46.086,-64.78584
Tim Hortons - Moncton Coliseum,"Moncton Coliseum,377 Killam Dr",Moncton,NB,"E1C 3T1,NA",NA,46.09423,-64.83272
Tim Hortons - Moncton Hospital,"Moncton Hospital,135 MacBeath Ave",Moncton,NB,"E1C 6Z8,(506) 856-8050",(506) 856-8050,46.10506,-64.80648
Tim Hortons - Royal Bank Plaza,"Royal Bank Plaza,721 Main St",Moncton,NB,"E1C 1E3,(506) 862-7640",(506) 862-7640,46.08867,-64.77679
Tim Hortons - 774 Principale St (DT),774 Principale St,N?guac,NB,"E9G 1N5,(506) 776-9092",(506) 776-9092,47.24388,-65.08409
